{"meta":{"code":200},"response":{"venues":[{"id":"0521522126","distance":641,"service":"NearMe","detailsUrl":null,"advKey":"dc59f46d03214f77ad08dee301b34d2b","contact":{"blogUrl":null,"email":"info@snappysnaps-bishopsgate.co.uk","facebook":"http://www.facebook.com/snappysnaps","fax":null,"foursquare":null,"mobile":null,"phone":"020 7377 5752","twitter":"http://twitter.com/SnappySnapsUK","websiteUrl":"http://www.snappysnaps-bishopsgate.co.uk"},"displayName":"SnappySnaps_70","photoUrl":"http://www.getnearme.com/data/merchants/2012/05/snappysnaps/snappysnaps_70/NesxBAiqVV_640x480.png","thumbUrl":"http://www.getnearme.com/data/merchants/2012/05/snappysnaps/snappysnaps_70/NesxBAiqVV_72x54.png","isSponsored":false,"isUserGenerated":false,"isVerified":false,"location":{"fullAddress":"220 Bishopsgate, EC2M 4QD London, United Kingdom","address1":"220 Bishopsgate","address2":null,"address3":null,"city":"London","countryCode":"GB","county":"London","latitude":51.5184505,"longitude":-0.0794067,"postalCode":"EC2M 4QD","region":null},"offersCount":0,"openNow":-1,"ratingsCount":0,"tradingName":"Snappy Snaps"},{"id":"Google:3235335694","distance":907,"service":"Google","detailsUrl":"http://www.google.com/maps/place?source=uds&q=Snappy+Snaps&cid=6143081326445544015","advKey":null,"contact":{"blogUrl":null,"email":null,"facebook":null,"fax":null,"foursquare":null,"mobile":null,"phone":"020 7729 5719","twitter":null,"websiteUrl":null},"displayName":null,"photoUrl":null,"thumbUrl":null,"isSponsored":false,"isUserGenerated":false,"isVerified":false,"location":{"fullAddress":"394 Bethnal Green Road, London, Greater London E2 0AH, United Kingdom","address1":"394 Bethnal Green Road","address2":null,"address3":null,"city":"London","countryCode":null,"county":"GB","latitude":51.526547,"longitude":-0.061184,"postalCode":null,"region":"Greater London"},"offersCount":0,"openNow":-1,"ratingsCount":0,"tradingName":"Snappy Snaps"},{"id":"2615093401","distance":911,"service":"NearMe","detailsUrl":null,"advKey":"dc59f46d03214f77ad08dee301b34d2b","contact":{"blogUrl":null,"email":"info@snappysnaps-aldgate.co.uk","facebook":"http://www.facebook.com/snappysnaps","fax":null,"foursquare":null,"mobile":null,"phone":"020 7702 4477","twitter":"http://twitter.com/SnappySnapsUK","websiteUrl":"http://www.snappysnaps-aldgate.co.uk"},"displayName":"SnappySnaps_69","photoUrl":"http://www.getnearme.com/data/merchants/2012/05/snappysnaps/snappysnaps_69/32jy4N0gS7_640x480.png","thumbUrl":"http://www.getnearme.com/data/merchants/2012/05/snappysnaps/snappysnaps_69/32jy4N0gS7_72x54.png","isSponsored":false,"isUserGenerated":false,"isVerified":false,"location":{"fullAddress":"86 Aldgate High Street, EC3N 1LH Aldgate, United Kingdom","address1":"86 Aldgate High Street","address2":null,"address3":null,"city":"Aldgate","countryCode":"GB","county":"London","latitude":51.5140439,"longitude":-0.0763568,"postalCode":"EC3N 1LH","region":null},"offersCount":0,"openNow":-1,"ratingsCount":0,"tradingName":"Snappy Snaps"},{"id":"8922477819","distance":1325,"service":"NearMe","detailsUrl":null,"advKey":"dc59f46d03214f77ad08dee301b34d2b","contact":{"blogUrl":null,"email":"info@snappysnaps-leadenhall.co.uk","facebook":"http://www.facebook.com/snappysnaps","fax":null,"foursquare":null,"mobile":null,"phone":"020 7621 1444","twitter":"http://twitter.com/SnappySnapsUK","websiteUrl":"http://www.snappysnaps-leadenhall.co.uk"},"displayName":"SnappySnaps_71","photoUrl":"http://www.getnearme.com/data/merchants/2012/05/snappysnaps/snappysnaps_71/qYozFVxK0j_640x480.png","thumbUrl":"http://www.getnearme.com/data/merchants/2012/05/snappysnaps/snappysnaps_71/qYozFVxK0j_72x54.png","isSponsored":false,"isUserGenerated":false,"isVerified":false,"location":{"fullAddress":"37 Leadenhall Market, EC3V 1LT London, United Kingdom","address1":"37 Leadenhall Market","address2":null,"address3":null,"city":"London","countryCode":"GB","county":"London","latitude":51.5124437,"longitude":-0.083792,"postalCode":"EC3V 1LT","region":null},"offersCount":0,"openNow":-1,"ratingsCount":0,"tradingName":"Snappy Snaps"},{"id":"1754101086","distance":1795,"service":"NearMe","detailsUrl":null,"advKey":"dc59f46d03214f77ad08dee301b34d2b","contact":{"blogUrl":null,"email":"info@snappysnaps-mansionhouse.co.uk","facebook":"http://www.facebook.com/snappysnaps","fax":null,"foursquare":null,"mobile":null,"phone":"020 7248 0701","twitter":"http://twitter.com/SnappySnapsUK","websiteUrl":"http://www.snappysnaps.co.uk/"},"displayName":"SnappySnaps_72","photoUrl":"http://www.getnearme.com/data/merchants/2012/05/snappysnaps/snappysnaps_72/AFlEpmJJ6q_640x480.png","thumbUrl":"http://www.getnearme.com/data/merchants/2012/05/snappysnaps/snappysnaps_72/AFlEpmJJ6q_72x54.png","isSponsored":false,"isUserGenerated":false,"isVerified":false,"location":{"fullAddress":"53a Queen Victoria Street, EC4N 4SA City/Mansion House, United Kingdom","address1":"53a Queen Victoria Street","address2":null,"address3":null,"city":"City/Mansion House","countryCode":"GB","county":"London","latitude":51.5123953,"longitude":-0.0929599,"postalCode":"EC4N 4SA","region":null},"offersCount":0,"openNow":-1,"ratingsCount":0,"tradingName":"Snappy Snaps"},{"id":"7556776921","distance":2163,"service":"NearMe","detailsUrl":null,"advKey":"dc59f46d03214f77ad08dee301b34d2b","contact":{"blogUrl":null,"email":"info@snappysnaps-farringdon.co.uk","facebook":"http://www.facebook.com/snappysnaps","fax":null,"foursquare":null,"mobile":null,"phone":"020 7490 7555","twitter":"http://twitter.com/SnappySnapsUK","websiteUrl":"http://www.snappysnaps-farringdon.co.uk"},"displayName":"SnappySnaps_81","photoUrl":"http://www.getnearme.com/data/merchants/2012/05/snappysnaps/snappysnaps_81/eSWmmcO2JL_640x480.png","thumbUrl":"http://www.getnearme.com/data/merchants/2012/05/snappysnaps/snappysnaps_81/eSWmmcO2JL_72x54.png","isSponsored":false,"isUserGenerated":false,"isVerified":false,"location":{"fullAddress":"18 Cowcross Street, EC1M 6DU Farringdon, United Kingdom","address1":"18 Cowcross Street","address2":null,"address3":null,"city":"Farringdon","countryCode":"GB","county":"London","latitude":51.52011,"longitude":-0.1029516,"postalCode":"EC1M 6DU","region":null},"offersCount":0,"openNow":-1,"ratingsCount":0,"tradingName":"Snappy Snaps"},{"id":"7467010164","distance":2663,"service":"NearMe","detailsUrl":null,"advKey":"dc59f46d03214f77ad08dee301b34d2b","contact":{"blogUrl":null,"email":"info@snappysnaps-fleetstreet.co.uk","facebook":"http://www.facebook.com/snappysnaps","fax":null,"foursquare":null,"mobile":null,"phone":"020 7353 4610","twitter":"http://twitter.com/SnappySnapsUK","websiteUrl":"http://www.snappysnaps.co.uk/"},"displayName":"SnappySnaps_82","photoUrl":"http://www.getnearme.com/data/merchants/2012/05/snappysnaps/snappysnaps_82/AQM4iJ9WOx_640x480.png","thumbUrl":"http://www.getnearme.com/data/merchants/2012/05/snappysnaps/snappysnaps_82/AQM4iJ9WOx_72x54.png","isSponsored":false,"isUserGenerated":false,"isVerified":false,"location":{"fullAddress":"59 Fleet Street, EC4Y 1JU London, United Kingdom","address1":"59 Fleet Street","address2":null,"address3":null,"city":"London","countryCode":"GB","county":"London","latitude":51.5141357,"longitude":-0.1082879,"postalCode":"EC4Y 1JU","region":null},"offersCount":0,"openNow":-1,"ratingsCount":0,"tradingName":"Snappy Snaps"},{"id":"Google:3453624496","distance":2675,"service":"Google","detailsUrl":"http://www.google.com/maps/place?source=uds&q=Snappy+Snaps&cid=5665610513624976810","advKey":null,"contact":{"blogUrl":null,"email":null,"facebook":null,"fax":null,"foursquare":null,"mobile":null,"phone":"020 7278 3345","twitter":null,"websiteUrl":null},"displayName":null,"photoUrl":null,"thumbUrl":null,"isSponsored":false,"isUserGenerated":false,"isVerified":false,"location":{"fullAddress":"Angel Corner House, 1 Islington High St, Angel, London N1 9LH, United Kingdom","address1":"Angel Corner House, 1 Islington High St","address2":null,"address3":null,"city":"Angel","countryCode":null,"county":"GB","latitude":51.539591,"longitude":-0.097709,"postalCode":null,"region":"London"},"offersCount":0,"openNow":-1,"ratingsCount":0,"tradingName":"Snappy Snaps"},{"id":"4736838278","distance":2718,"service":"NearMe","detailsUrl":null,"advKey":"dc59f46d03214f77ad08dee301b34d2b","contact":{"blogUrl":null,"email":"info@snappysnaps-angel.co.uk","facebook":"http://www.facebook.com/snappysnaps","fax":null,"foursquare":null,"mobile":null,"phone":"020 7278 3345","twitter":"http://twitter.com/SnappySnapsUK","websiteUrl":"http://www.snappysnaps-angel.co.uk"},"displayName":"SnappySnaps_90","photoUrl":"http://www.getnearme.com/data/merchants/2012/05/snappysnaps/snappysnaps_90/0htPl8y5rt_640x480.png","thumbUrl":"http://www.getnearme.com/data/merchants/2012/05/snappysnaps/snappysnaps_90/0htPl8y5rt_72x54.png","isSponsored":false,"isUserGenerated":false,"isVerified":false,"location":{"fullAddress":"43 Islington High Street, N1 9LH Angel, United Kingdom","address1":"43 Islington High Street","address2":null,"address3":null,"city":"Angel","countryCode":"GB","county":"London","latitude":51.5330655,"longitude":-0.1066155,"postalCode":"N1 9LH","region":null},"offersCount":0,"openNow":-1,"ratingsCount":0,"tradingName":"Snappy Snaps"},{"id":"6359415392","distance":2870,"service":"NearMe","detailsUrl":null,"advKey":"dc59f46d03214f77ad08dee301b34d2b","contact":{"blogUrl":null,"email":"info@snappysnaps-dalston.co.uk","facebook":"http://www.facebook.com/snappysnaps","fax":null,"foursquare":null,"mobile":null,"phone":"020 7923 9141","twitter":"http://twitter.com/SnappySnapsUK","websiteUrl":"http://www.snappysnaps.co.uk/"},"displayName":"SnappySnaps_78","photoUrl":"http://www.getnearme.com/data/merchants/2012/05/snappysnaps/snappysnaps_78/feNI6jll9e_640x480.png","thumbUrl":"http://www.getnearme.com/data/merchants/2012/05/snappysnaps/snappysnaps_78/feNI6jll9e_72x54.png","isSponsored":false,"isUserGenerated":false,"isVerified":false,"location":{"fullAddress":"33 Kingsland High Street, E8 2JS Dalston, United Kingdom","address1":"33 Kingsland High Street","address2":null,"address3":null,"city":"Dalston","countryCode":"GB","county":"London","latitude":51.5474373,"longitude":-0.0757178,"postalCode":"E8 2JS","region":null},"offersCount":0,"openNow":-1,"ratingsCount":0,"tradingName":"Snappy Snaps"},{"id":"5825790499","distance":3160,"service":"NearMe","detailsUrl":null,"advKey":"dc59f46d03214f77ad08dee301b34d2b","contact":{"blogUrl":null,"email":"info@snappysnaps-hackney.co.uk","facebook":"http://www.facebook.com/snappysnaps","fax":null,"foursquare":null,"mobile":null,"phone":"020 8986 8833","twitter":"http://twitter.com/SnappySnapsUK","websiteUrl":"http://www.snappysnaps-hackney.co.uk"},"displayName":"SnappySnaps_85","photoUrl":"http://www.getnearme.com/data/merchants/2012/05/snappysnaps/snappysnaps_85/l6t2bD8SZK_640x480.png","thumbUrl":"http://www.getnearme.com/data/merchants/2012/05/snappysnaps/snappysnaps_85/l6t2bD8SZK_72x54.png","isSponsored":false,"isUserGenerated":false,"isVerified":false,"location":{"fullAddress":"362 Mare Street, E8 1HR Hackney, United Kingdom","address1":"362 Mare Street","address2":null,"address3":null,"city":"Hackney","countryCode":"GB","county":"London","latitude":51.5481416,"longitude":-0.0548786,"postalCode":"E8 1HR","region":null},"offersCount":0,"openNow":-1,"ratingsCount":0,"tradingName":"Snappy Snaps"},{"id":"9918675395","distance":3413,"service":"NearMe","detailsUrl":null,"advKey":"dc59f46d03214f77ad08dee301b34d2b","contact":{"blogUrl":null,"email":"info@snappysnaps-highbury.co.uk","facebook":"http://www.facebook.com/snappysnaps","fax":null,"foursquare":null,"mobile":null,"phone":"020 7359 8111","twitter":"http://twitter.com/SnappySnapsUK","websiteUrl":"http://www.snappysnaps-highbury.co.uk"},"displayName":"SnappySnaps_88","photoUrl":"http://www.getnearme.com/data/merchants/2012/05/snappysnaps/snappysnaps_88/QpyDzRGlDP_640x480.png","thumbUrl":"http://www.getnearme.com/data/merchants/2012/05/snappysnaps/snappysnaps_88/QpyDzRGlDP_72x54.png","isSponsored":false,"isUserGenerated":false,"isVerified":false,"location":{"fullAddress":"245 Upper Street, N1 1RU Highbury, United Kingdom","address1":"245 Upper Street","address2":null,"address3":null,"city":"Highbury","countryCode":"GB","county":"London","latitude":51.545287,"longitude":-0.1034297,"postalCode":"N1 1RU","region":null},"offersCount":0,"openNow":-1,"ratingsCount":0,"tradingName":"Snappy Snaps"}],"count":12}}