{"meta":{"code":200},"response":{"venues":[{"id":"Google:3289877033","distance":414,"service":"Google","detailsUrl":"http://www.google.com/maps/place?source=uds&q=DIY+Hardware+Stores&cid=12426933415657740064","advKey":null,"contact":{"blogUrl":null,"email":null,"facebook":null,"fax":null,"foursquare":null,"mobile":null,"phone":"020 7739 6724","twitter":null,"websiteUrl":null},"displayName":null,"photoUrl":null,"thumbUrl":null,"isSponsored":false,"isUserGenerated":false,"isVerified":false,"location":{"fullAddress":"149 Bethnal Green Road, Bethnal Green, London E2 7DG, United Kingdom","address1":"149 Bethnal Green Road","address2":null,"address3":null,"city":"London","countryCode":null,"county":"GB","latitude":51.525414,"longitude":-0.070785,"postalCode":null,"region":null},"offersCount":0,"openNow":-1,"ratingsCount":0,"tradingName":"Rose D I Y"},{"id":"Google:7522382981","distance":604,"service":"Google","detailsUrl":"http://www.google.com/maps/place?source=uds&q=DIY+Hardware+Stores&cid=2271031459542836918","advKey":null,"contact":{"blogUrl":null,"email":null,"facebook":null,"fax":null,"foursquare":null,"mobile":null,"phone":"020 7377 8833","twitter":null,"websiteUrl":null},"displayName":null,"photoUrl":null,"thumbUrl":null,"isSponsored":false,"isUserGenerated":false,"isVerified":false,"location":{"fullAddress":"2 Commercial Street, London, london E1 6LP, United Kingdom","address1":"2 Commercial Street","address2":null,"address3":null,"city":"London","countryCode":null,"county":"GB","latitude":51.516319,"longitude":-0.072467,"postalCode":null,"region":"london"},"offersCount":0,"openNow":-1,"ratingsCount":0,"tradingName":"sids diy"},{"id":"4391","distance":2171,"service":"NearMe","detailsUrl":null,"advKey":null,"contact":{"blogUrl":null,"email":null,"facebook":null,"fax":null,"foursquare":null,"mobile":null,"phone":"02077 904168","twitter":null,"websiteUrl":"http://www.screwfix.com"},"displayName":"screwfix_4391","photoUrl":"http://www.getnearme.com/data/merchants/2012/04/screwfix/screwfix_4391/Xc25U6wI9R_640x480.jpg","thumbUrl":"http://www.getnearme.com/data/merchants/2012/04/screwfix/screwfix_4391/Xc25U6wI9R_72x54.jpg","isSponsored":false,"isUserGenerated":false,"isVerified":false,"location":{"fullAddress":"Heckford Street, E1W 3HR Limehouse, United Kingdom","address1":"Heckford Street","address2":null,"address3":null,"city":"Limehouse","countryCode":"GB","county":null,"latitude":51.5111626,"longitude":-0.0453958,"postalCode":"E1W 3HR","region":"GB"},"offersCount":0,"openNow":-1,"ratingsCount":0,"tradingName":"Screwfix The Highway"},{"id":"Google:6455194382","distance":2327,"service":"Google","detailsUrl":"http://www.google.com/maps/place?source=uds&q=DIY+Hardware+Stores&cid=14972846399344381393","advKey":null,"contact":{"blogUrl":null,"email":null,"facebook":null,"fax":null,"foursquare":null,"mobile":null,"phone":"020 72499200","twitter":null,"websiteUrl":null},"displayName":null,"photoUrl":null,"thumbUrl":null,"isSponsored":false,"isUserGenerated":false,"isVerified":false,"location":{"fullAddress":"415-417 Kingsland Road, Dalston, London E8 4AU, United Kingdom","address1":"415-417 Kingsland Road","address2":null,"address3":null,"city":"London","countryCode":null,"county":"GB","latitude":51.542458,"longitude":-0.07655,"postalCode":null,"region":null},"offersCount":0,"openNow":-1,"ratingsCount":0,"tradingName":"KTS"},{"id":"Google:0887763702","distance":2837,"service":"Google","detailsUrl":"http://www.google.com/maps/place?source=uds&q=DIY+Hardware+Stores&cid=11612402640783396427","advKey":null,"contact":{"blogUrl":null,"email":null,"facebook":null,"fax":null,"foursquare":null,"mobile":null,"phone":"020 8980 1672","twitter":null,"websiteUrl":null},"displayName":null,"photoUrl":null,"thumbUrl":null,"isSponsored":false,"isUserGenerated":false,"isVerified":false,"location":{"fullAddress":"442-444 Roman Road, London, Greater London E3 5LU, United Kingdom","address1":"442-444 Roman Road","address2":null,"address3":null,"city":"London","countryCode":null,"county":"GB","latitude":51.531965,"longitude":-0.034209,"postalCode":null,"region":"Greater London"},"offersCount":0,"openNow":-1,"ratingsCount":0,"tradingName":"Thompson's"},{"id":"Google:3540129870","distance":3565,"service":"Google","detailsUrl":"http://www.google.com/maps/place?source=uds&q=DIY+Hardware+Stores&cid=12263848667927797952","advKey":null,"contact":{"blogUrl":null,"email":null,"facebook":null,"fax":null,"foursquare":null,"mobile":null,"phone":"020 7207 2077","twitter":null,"websiteUrl":null},"displayName":null,"photoUrl":null,"thumbUrl":null,"isSponsored":false,"isUserGenerated":false,"isVerified":false,"location":{"fullAddress":"97 Lower Marsh, London Borough of Lambeth, SE1 7AB, United Kingdom","address1":"97 Lower Marsh","address2":null,"address3":null,"city":"London","countryCode":null,"county":"GB","latitude":51.501408,"longitude":-0.111627,"postalCode":null,"region":"Greater London"},"offersCount":0,"openNow":-1,"ratingsCount":0,"tradingName":"The Tool Shop"},{"id":"4329","distance":3676,"service":"NearMe","detailsUrl":null,"advKey":null,"contact":{"blogUrl":null,"email":null,"facebook":null,"fax":null,"foursquare":null,"mobile":null,"phone":"02089 817602","twitter":null,"websiteUrl":"http://www.screwfix.com"},"displayName":"screwfix_4329","photoUrl":"http://www.getnearme.com/data/merchants/2012/04/screwfix/screwfix_4329/J7efegAmS5_640x480.jpg","thumbUrl":"http://www.getnearme.com/data/merchants/2012/04/screwfix/screwfix_4329/J7efegAmS5_72x54.jpg","isSponsored":false,"isUserGenerated":false,"isVerified":false,"location":{"fullAddress":"Maverton Road, E3 2JE Bow, United Kingdom","address1":"Maverton Road","address2":null,"address3":null,"city":"Bow","countryCode":"GB","county":null,"latitude":51.534927,"longitude":-0.0230534,"postalCode":"E3 2JE","region":"GB"},"offersCount":0,"openNow":-1,"ratingsCount":0,"tradingName":"Screwfix Bow"},{"id":"4322","distance":3787,"service":"NearMe","detailsUrl":null,"advKey":null,"contact":{"blogUrl":null,"email":null,"facebook":null,"fax":null,"foursquare":null,"mobile":null,"phone":"0207 2317427","twitter":null,"websiteUrl":"http://www.screwfix.com"},"displayName":"screwfix_4322","photoUrl":"http://www.getnearme.com/data/merchants/2012/04/screwfix/screwfix_4322/99INbiMnjl_640x480.jpg","thumbUrl":"http://www.getnearme.com/data/merchants/2012/04/screwfix/screwfix_4322/99INbiMnjl_72x54.jpg","isSponsored":false,"isUserGenerated":false,"isVerified":false,"location":{"fullAddress":"Bermondsey Trading Estate, SE16 3LL Bermondsey, United Kingdom","address1":"Bermondsey Trading Estate","address2":null,"address3":null,"city":"Bermondsey","countryCode":"GB","county":null,"latitude":51.4892672,"longitude":-0.0552344,"postalCode":"SE16 3LL","region":"GB"},"offersCount":0,"openNow":-1,"ratingsCount":0,"tradingName":"Screwfix Bermondsey"},{"id":"3951","distance":4121,"service":"NearMe","detailsUrl":null,"advKey":null,"contact":{"blogUrl":null,"email":null,"facebook":null,"fax":null,"foursquare":null,"mobile":null,"phone":"0207 2520657","twitter":null,"websiteUrl":"http://www.diy.com/"},"displayName":"bandq_3951","photoUrl":"http://www.getnearme.com/data/merchants/2012/04/diy/bandq_3951/agA5HUGAnN_640x480.png","thumbUrl":"http://www.getnearme.com/data/merchants/2012/04/diy/bandq_3951/agA5HUGAnN_72x54.png","isSponsored":false,"isUserGenerated":false,"isVerified":false,"location":{"fullAddress":"524 Old Kent Road, SE1 5BA London, United Kingdom","address1":"524 Old Kent Road","address2":null,"address3":null,"city":"London","countryCode":"GB","county":null,"latitude":51.4847,"longitude":-0.069347,"postalCode":"SE1 5BA","region":"GB"},"offersCount":0,"openNow":-1,"ratingsCount":0,"tradingName":"B&Q"},{"id":"Google:9908014063","distance":4512,"service":"Google","detailsUrl":"http://www.google.com/maps/place?source=uds&q=DIY+Hardware+Stores&cid=4805438771163399056","advKey":null,"contact":{"blogUrl":null,"email":null,"facebook":null,"fax":null,"foursquare":null,"mobile":null,"phone":"020 7254 0272","twitter":null,"websiteUrl":null},"displayName":null,"photoUrl":null,"thumbUrl":null,"isSponsored":false,"isUserGenerated":false,"isVerified":false,"location":{"fullAddress":"46 Stoke Newington Church Street, London N16 0LU, United Kingdom","address1":"46 Stoke Newington Church Street","address2":null,"address3":null,"city":"London","countryCode":null,"county":"GB","latitude":51.562245,"longitude":-0.075549,"postalCode":null,"region":null},"offersCount":0,"openNow":-1,"ratingsCount":0,"tradingName":"K A C Builders Merchants"},{"id":"Google:6974772855","distance":4908,"service":"Google","detailsUrl":"http://www.google.com/maps/place?source=uds&q=DIY+Hardware+Stores&cid=10325809420681964527","advKey":null,"contact":{"blogUrl":null,"email":null,"facebook":null,"fax":null,"foursquare":null,"mobile":null,"phone":"020 7580 2276","twitter":null,"websiteUrl":null},"displayName":null,"photoUrl":null,"thumbUrl":null,"isSponsored":false,"isUserGenerated":false,"isVerified":false,"location":{"fullAddress":"146 Great Portland St, London, Westminster W1W 6QB, United Kingdom","address1":"146 Great Portland St","address2":null,"address3":null,"city":"London","countryCode":null,"county":"GB","latitude":51.520478,"longitude":-0.142708,"postalCode":null,"region":"Westminster"},"offersCount":0,"openNow":-1,"ratingsCount":0,"tradingName":"Portland Hardware ltd"},{"id":"3946","distance":5623,"service":"NearMe","detailsUrl":null,"advKey":null,"contact":{"blogUrl":null,"email":null,"facebook":null,"fax":null,"foursquare":null,"mobile":null,"phone":"020 89881010","twitter":null,"websiteUrl":"http://www.diy.com/"},"displayName":"bandq_3946","photoUrl":"http://www.getnearme.com/data/merchants/2012/04/diy/bandq_3946/nMiCjgD160_640x480.png","thumbUrl":"http://www.getnearme.com/data/merchants/2012/04/diy/bandq_3946/nMiCjgD160_72x54.png","isSponsored":false,"isUserGenerated":false,"isVerified":false,"location":{"fullAddress":"1 Leyton Mills, Marshall Road, E10 5NH London, United Kingdom","address1":"1 Leyton Mills, Marshall Road","address2":null,"address3":null,"city":"London","countryCode":"GB","county":null,"latitude":51.5564,"longitude":-0.012591,"postalCode":"E10 5NH","region":"GB"},"offersCount":0,"openNow":-1,"ratingsCount":0,"tradingName":"B&Q"},{"id":"3948","distance":5915,"service":"NearMe","detailsUrl":null,"advKey":null,"contact":{"blogUrl":null,"email":null,"facebook":null,"fax":null,"foursquare":null,"mobile":null,"phone":"020 85584817","twitter":null,"websiteUrl":"http://www.diy.com/"},"displayName":"bandq_3948","photoUrl":"http://www.getnearme.com/data/merchants/2012/04/diy/bandq_3948/kwhXQIYrcN_640x480.png","thumbUrl":"http://www.getnearme.com/data/merchants/2012/04/diy/bandq_3948/kwhXQIYrcN_72x54.png","isSponsored":false,"isUserGenerated":false,"isVerified":false,"location":{"fullAddress":"18 Heybridge Way, Lea Bridge Road, E10 7PQ London, United Kingdom","address1":"18 Heybridge Way, Lea Bridge Road","address2":null,"address3":null,"city":"London","countryCode":"GB","county":null,"latitude":51.5685,"longitude":-0.031021,"postalCode":"E10 7PQ","region":"GB"},"offersCount":0,"openNow":-1,"ratingsCount":0,"tradingName":"B&Q"},{"id":"4408","distance":6628,"service":"NearMe","detailsUrl":null,"advKey":null,"contact":{"blogUrl":null,"email":null,"facebook":null,"fax":null,"foursquare":null,"mobile":null,"phone":"02085 561679","twitter":null,"websiteUrl":"http://www.screwfix.com"},"displayName":"screwfix_4408","photoUrl":"http://www.getnearme.com/data/merchants/2012/04/screwfix/screwfix_4408/0WsY2dLE2U_640x480.jpg","thumbUrl":"http://www.getnearme.com/data/merchants/2012/04/screwfix/screwfix_4408/0WsY2dLE2U_72x54.jpg","isSponsored":false,"isUserGenerated":false,"isVerified":false,"location":{"fullAddress":"Leabridge road, E10 7NQ Leyton, United Kingdom","address1":"Leabridge road","address2":null,"address3":null,"city":"Leyton","countryCode":"GB","county":null,"latitude":51.5720258,"longitude":-0.0203289,"postalCode":"E10 7NQ","region":"GB"},"offersCount":0,"openNow":-1,"ratingsCount":0,"tradingName":"Screwfix Leyton"},{"id":"4475","distance":6762,"service":"NearMe","detailsUrl":null,"advKey":null,"contact":{"blogUrl":null,"email":null,"facebook":null,"fax":null,"foursquare":null,"mobile":null,"phone":"0208 2169574","twitter":null,"websiteUrl":"http://www.screwfix.com"},"displayName":"screwfix_4475","photoUrl":"http://www.getnearme.com/data/merchants/2012/04/screwfix/screwfix_4475/99xfJjJVeq_640x480.jpg","thumbUrl":"http://www.getnearme.com/data/merchants/2012/04/screwfix/screwfix_4475/99xfJjJVeq_72x54.jpg","isSponsored":false,"isUserGenerated":false,"isVerified":false,"location":{"fullAddress":"Rangemoor Road, N15 4NA Tottenham, United Kingdom","address1":"Rangemoor Road","address2":null,"address3":null,"city":"Tottenham","countryCode":"GB","county":null,"latitude":51.5825342,"longitude":-0.0692661,"postalCode":"N15 4NA","region":"GB"},"offersCount":0,"openNow":-1,"ratingsCount":0,"tradingName":"Screwfix Tottenham"},{"id":"4078","distance":6940,"service":"NearMe","detailsUrl":null,"advKey":null,"contact":{"blogUrl":null,"email":null,"facebook":null,"fax":null,"foursquare":null,"mobile":null,"phone":"020 83128000","twitter":null,"websiteUrl":"http://www.diy.com/"},"displayName":"bandq_4078","photoUrl":"http://www.getnearme.com/data/merchants/2012/04/diy/bandq_4078/JzcrC9QYKH_640x480.png","thumbUrl":"http://www.getnearme.com/data/merchants/2012/04/diy/bandq_4078/JzcrC9QYKH_72x54.png","isSponsored":false,"isUserGenerated":false,"isVerified":false,"location":{"fullAddress":"59 Bugsby Way, Greenwich Peninsula, SE10 0QJ London, United Kingdom","address1":"59 Bugsby Way, Greenwich Peninsula","address2":null,"address3":null,"city":"London","countryCode":"GB","county":null,"latitude":51.4904,"longitude":0.014933,"postalCode":"SE10 0QJ","region":"GB"},"offersCount":0,"openNow":-1,"ratingsCount":0,"tradingName":"B&Q"},{"id":"3957","distance":7223,"service":"NearMe","detailsUrl":null,"advKey":null,"contact":{"blogUrl":null,"email":null,"facebook":null,"fax":null,"foursquare":null,"mobile":null,"phone":"020 83651699","twitter":null,"websiteUrl":"http://www.diy.com/"},"displayName":"bandq_3957","photoUrl":"http://www.getnearme.com/data/merchants/2012/04/diy/bandq_3957/NDpmZs8y1p_640x480.png","thumbUrl":"http://www.getnearme.com/data/merchants/2012/04/diy/bandq_3957/NDpmZs8y1p_72x54.png","isSponsored":false,"isUserGenerated":false,"isVerified":false,"location":{"fullAddress":"Unit 7 Tottenham Hale Retail Park, Broad Lane, N15 4QD London, United Kingdom","address1":"Unit 7 Tottenham Hale Retail Park, Broad Lane","address2":null,"address3":null,"city":"London","countryCode":"GB","county":null,"latitude":51.5865,"longitude":-0.063591,"postalCode":"N15 4QD","region":"GB"},"offersCount":0,"openNow":-1,"ratingsCount":0,"tradingName":"B&Q"}],"count":17}}