{"meta":{"code":200},"response":{"venues":[{"id":"4291","distance":718,"service":"NearMe","detailsUrl":null,"advKey":null,"contact":{"blogUrl":null,"email":"thewhitehorse@geronimo-inns.co.uk","facebook":null,"fax":null,"foursquare":null,"mobile":null,"phone":"020 7377 9958","twitter":null,"websiteUrl":"http://www.geronimo-inns.co.uk/"},"displayName":"geronimo_4291","photoUrl":"http://www.getnearme.com/data/merchants/2012/04/geronimoinns/geronimo_4291/RBjPPl0Lfe_640x480.png","thumbUrl":"http://www.getnearme.com/data/merchants/2012/04/geronimoinns/geronimo_4291/RBjPPl0Lfe_72x54.png","isSponsored":false,"isUserGenerated":false,"isVerified":false,"location":{"fullAddress":"2 Exchange Square, EC2M 2QA London, United Kingdom","address1":"2 Exchange Square","address2":null,"address3":null,"city":"London","countryCode":"GB","county":null,"latitude":51.520667,"longitude":-0.082033,"postalCode":"EC2M 2QA","region":"GB"},"offersCount":0,"openNow":-1,"ratingsCount":0,"tradingName":"The White Horse"},{"id":"4278","distance":2346,"service":"NearMe","detailsUrl":null,"advKey":null,"contact":{"blogUrl":null,"email":"thecrown@geronimo-inns.co.uk","facebook":null,"fax":null,"foursquare":null,"mobile":null,"phone":"020 8880 7261","twitter":null,"websiteUrl":"http://www.geronimo-inns.co.uk/"},"displayName":"geronimo_4278","photoUrl":"http://www.getnearme.com/data/merchants/2012/04/geronimoinns/geronimo_4278/137UVnbZrN_640x480.png","thumbUrl":"http://www.getnearme.com/data/merchants/2012/04/geronimoinns/geronimo_4278/137UVnbZrN_72x54.png","isSponsored":false,"isUserGenerated":false,"isVerified":false,"location":{"fullAddress":"223 Grove Road, E3 5SN London, United Kingdom","address1":"223 Grove Road","address2":null,"address3":null,"city":"London","countryCode":"GB","county":null,"latitude":51.531948,"longitude":-0.0421,"postalCode":"E3 5SN","region":"GB"},"offersCount":0,"openNow":-1,"ratingsCount":0,"tradingName":"The Crown"},{"id":"4277","distance":2819,"service":"NearMe","detailsUrl":null,"advKey":null,"contact":{"blogUrl":null,"email":"thecastle@geronimo-inns.co.uk","facebook":null,"fax":null,"foursquare":null,"mobile":null,"phone":"020 7713 1858","twitter":null,"websiteUrl":"http://www.geronimo-inns.co.uk/"},"displayName":"geronimo_4277","photoUrl":"http://www.getnearme.com/data/merchants/2012/04/geronimoinns/geronimo_4277/VV8n6uxZuh_640x480.png","thumbUrl":"http://www.getnearme.com/data/merchants/2012/04/geronimoinns/geronimo_4277/VV8n6uxZuh_72x54.png","isSponsored":false,"isUserGenerated":false,"isVerified":false,"location":{"fullAddress":"54 Pentonville Road, N1 9HF London, United Kingdom","address1":"54 Pentonville Road","address2":null,"address3":null,"city":"London","countryCode":"GB","county":null,"latitude":51.531921,"longitude":-0.109112,"postalCode":"N1 9HF","region":"GB"},"offersCount":0,"openNow":-1,"ratingsCount":0,"tradingName":"The Castle"},{"id":"4280","distance":3752,"service":"NearMe","detailsUrl":null,"advKey":null,"contact":{"blogUrl":null,"email":"theduchessofkent@geronimo-inns.co.uk","facebook":null,"fax":null,"foursquare":null,"mobile":null,"phone":"020 7609 7104","twitter":null,"websiteUrl":"http://www.geronimo-inns.co.uk/"},"displayName":"geronimo_4280","photoUrl":"http://www.getnearme.com/data/merchants/2012/04/geronimoinns/geronimo_4280/0eNM3cB0Qc_640x480.png","thumbUrl":"http://www.getnearme.com/data/merchants/2012/04/geronimoinns/geronimo_4280/0eNM3cB0Qc_72x54.png","isSponsored":false,"isUserGenerated":false,"isVerified":false,"location":{"fullAddress":"441 Liverpool Road, N7 8PR London, United Kingdom","address1":"441 Liverpool Road","address2":null,"address3":null,"city":"London","countryCode":"GB","county":null,"latitude":51.546415,"longitude":-0.10879,"postalCode":"N7 8PR","region":"GB"},"offersCount":0,"openNow":-1,"ratingsCount":0,"tradingName":"The Duchess of Kent"},{"id":"4306","distance":3757,"service":"NearMe","detailsUrl":null,"advKey":null,"contact":{"blogUrl":null,"email":"thebetjemanarms@geronimo-inns.co.uk","facebook":null,"fax":null,"foursquare":null,"mobile":null,"phone":"0207 923 5440","twitter":null,"websiteUrl":"http://www.geronimo-inns.co.uk/"},"displayName":"geronimo_4306","photoUrl":"http://www.getnearme.com/data/merchants/2012/04/geronimoinns/geronimo_4306/MQpI15wv9T_640x480.png","thumbUrl":"http://www.getnearme.com/data/merchants/2012/04/geronimoinns/geronimo_4306/MQpI15wv9T_72x54.png","isSponsored":false,"isUserGenerated":false,"isVerified":false,"location":{"fullAddress":"St. Pancras International Station, Pancras Road, N1C 4QL London, United Kingdom","address1":"St. Pancras International Station, Pancras Road","address2":null,"address3":null,"city":"London","countryCode":"GB","county":null,"latitude":51.530189,"longitude":-0.124379,"postalCode":"N1C 4QL","region":"GB"},"offersCount":0,"openNow":-1,"ratingsCount":0,"tradingName":"The Betjeman Arms"},{"id":"4290","distance":4187,"service":"NearMe","detailsUrl":null,"advKey":null,"contact":{"blogUrl":null,"email":"theclarence@geronimo-inns.co.uk","facebook":null,"fax":null,"foursquare":null,"mobile":null,"phone":"020 7930 4808","twitter":null,"websiteUrl":"http://www.geronimo-inns.co.uk/"},"displayName":"geronimo_4290","photoUrl":"http://www.getnearme.com/data/merchants/2012/04/geronimoinns/geronimo_4290/cDro6Egoko_640x480.png","thumbUrl":"http://www.getnearme.com/data/merchants/2012/04/geronimoinns/geronimo_4290/cDro6Egoko_72x54.png","isSponsored":false,"isUserGenerated":false,"isVerified":false,"location":{"fullAddress":"53 Whitehall, SW1A 2HP London, United Kingdom","address1":"53 Whitehall","address2":null,"address3":null,"city":"London","countryCode":"GB","county":null,"latitude":51.506192,"longitude":-0.126901,"postalCode":"SW1A 2HP","region":"GB"},"offersCount":0,"openNow":-1,"ratingsCount":0,"tradingName":"The Clarence"},{"id":"4289","distance":4592,"service":"NearMe","detailsUrl":null,"advKey":null,"contact":{"blogUrl":null,"email":"theadamandeve@geronimo-inns.co.uk","facebook":null,"fax":null,"foursquare":null,"mobile":null,"phone":"020 7636 0717","twitter":null,"websiteUrl":"http://www.geronimo-inns.co.uk/"},"displayName":"geronimo_4289","photoUrl":"http://www.getnearme.com/data/merchants/2012/04/geronimoinns/geronimo_4289/7wTX56IG0i_640x480.png","thumbUrl":"http://www.getnearme.com/data/merchants/2012/04/geronimoinns/geronimo_4289/7wTX56IG0i_72x54.png","isSponsored":false,"isUserGenerated":false,"isVerified":false,"location":{"fullAddress":"77a Wells Street, W1T 3QQ London, United Kingdom","address1":"77a Wells Street","address2":null,"address3":null,"city":"London","countryCode":"GB","county":null,"latitude":51.517035,"longitude":-0.137737,"postalCode":"W1T 3QQ","region":"GB"},"offersCount":0,"openNow":-1,"ratingsCount":0,"tradingName":"The Adam and Eve"},{"id":"4295","distance":5080,"service":"NearMe","detailsUrl":null,"advKey":null,"contact":{"blogUrl":null,"email":"thecow@geronimo-inns.co.uk","facebook":null,"fax":null,"foursquare":null,"mobile":null,"phone":"020 8291 8644","twitter":null,"websiteUrl":"http://www.geronimo-inns.co.uk/"},"displayName":"geronimo_4295","photoUrl":"http://www.getnearme.com/data/merchants/2012/04/geronimoinns/geronimo_4295/XKfQVhIydi_640x480.png","thumbUrl":"http://www.getnearme.com/data/merchants/2012/04/geronimoinns/geronimo_4295/XKfQVhIydi_72x54.png","isSponsored":false,"isUserGenerated":false,"isVerified":false,"location":{"fullAddress":"4 Chestnut Plaza, Westfield Stratford City, E20 1GL London, United Kingdom","address1":"4 Chestnut Plaza, Westfield Stratford City","address2":null,"address3":null,"city":"London","countryCode":"GB","county":null,"latitude":51.542011,"longitude":-0.005965,"postalCode":"E20 1GL","region":"GB"},"offersCount":0,"openNow":-1,"ratingsCount":0,"tradingName":"The Cow"},{"id":"4293","distance":5485,"service":"NearMe","detailsUrl":null,"advKey":null,"contact":{"blogUrl":null,"email":"thelionandunicorn@geronimo-inns.co.uk","facebook":null,"fax":null,"foursquare":null,"mobile":null,"phone":"0207 267 2304","twitter":null,"websiteUrl":"http://www.geronimo-inns.co.uk/"},"displayName":"geronimo_4293","photoUrl":"http://www.getnearme.com/data/merchants/2012/04/geronimoinns/geronimo_4293/RTtTkID2In_640x480.png","thumbUrl":"http://www.getnearme.com/data/merchants/2012/04/geronimoinns/geronimo_4293/RTtTkID2In_72x54.png","isSponsored":false,"isUserGenerated":false,"isVerified":false,"location":{"fullAddress":"42-44 Gaisford Street, NW5 2ED London, United Kingdom","address1":"42-44 Gaisford Street","address2":null,"address3":null,"city":"London","countryCode":"GB","county":null,"latitude":51.548043,"longitude":-0.138874,"postalCode":"NW5 2ED","region":"GB"},"offersCount":0,"openNow":-1,"ratingsCount":0,"tradingName":"The Lion and Unicorn"},{"id":"4302","distance":5569,"service":"NearMe","detailsUrl":null,"advKey":null,"contact":{"blogUrl":null,"email":"thefentimanarms@geronimo-inns.co.uk","facebook":null,"fax":null,"foursquare":null,"mobile":null,"phone":"020 7793 9796","twitter":null,"websiteUrl":"http://www.geronimo-inns.co.uk/"},"displayName":"geronimo_4302","photoUrl":"http://www.getnearme.com/data/merchants/2012/04/geronimoinns/geronimo_4302/XaClnEvOlS_640x480.png","thumbUrl":"http://www.getnearme.com/data/merchants/2012/04/geronimoinns/geronimo_4302/XaClnEvOlS_72x54.png","isSponsored":false,"isUserGenerated":false,"isVerified":false,"location":{"fullAddress":"64 Fentiman Road, SW8 1LA London, United Kingdom","address1":"64 Fentiman Road","address2":null,"address3":null,"city":"London","countryCode":"GB","county":null,"latitude":51.480848,"longitude":-0.118275,"postalCode":"SW8 1LA","region":"GB"},"offersCount":0,"openNow":-1,"ratingsCount":0,"tradingName":"The Fentiman Arms"}],"count":10}}