{"meta":{"code":200},"response":{"venues":[{"id":"Google:9384636206","distance":10,"service":"Google","detailsUrl":"http://www.google.com/maps/place?source=uds&q=Restaurants&cid=3251803346848586530","advKey":null,"contact":{"blogUrl":null,"email":null,"facebook":null,"fax":null,"foursquare":null,"mobile":null,"phone":"020 7247 0005","twitter":null,"websiteUrl":null},"displayName":null,"photoUrl":null,"thumbUrl":null,"isSponsored":false,"isUserGenerated":false,"isVerified":false,"location":{"fullAddress":"152C Brick Lane, City of London, Greater London E1 6RU, United Kingdom","address1":"152C Brick Lane","address2":null,"address3":null,"city":null,"countryCode":null,"county":"GB","latitude":51.521706,"longitude":-0.071647,"postalCode":null,"region":"Greater London"},"offersCount":0,"openNow":-1,"ratingsCount":0,"tradingName":"The Brickhouse"},{"id":"Google:5296320521","distance":24,"service":"Google","detailsUrl":"http://www.google.com/maps/place?source=uds&q=Restaurants&cid=16872939245247502501","advKey":null,"contact":{"blogUrl":null,"email":null,"facebook":null,"fax":null,"foursquare":null,"mobile":null,"phone":"020 7426 9200","twitter":null,"websiteUrl":null},"displayName":null,"photoUrl":null,"thumbUrl":null,"isSponsored":false,"isUserGenerated":false,"isVerified":false,"location":{"fullAddress":"95 Brick Lane, London E1 6QL, United Kingdom","address1":"95 Brick Lane","address2":null,"address3":null,"city":"London","countryCode":null,"county":"GB","latitude":51.521956,"longitude":-0.071818,"postalCode":null,"region":null},"offersCount":0,"openNow":-1,"ratingsCount":0,"tradingName":"All Star Lanes"},{"id":"Google:6234778910","distance":34,"service":"Google","detailsUrl":"http://www.google.com/maps/place?source=uds&q=Restaurants&cid=7268941429008600175","advKey":null,"contact":{"blogUrl":null,"email":null,"facebook":null,"fax":null,"foursquare":null,"mobile":null,"phone":"020 7366 4868","twitter":null,"websiteUrl":null},"displayName":null,"photoUrl":null,"thumbUrl":null,"isSponsored":false,"isUserGenerated":false,"isVerified":false,"location":{"fullAddress":"75 Brick Ln, City of London, Greater London E1 6QL, United Kingdom","address1":"75 Brick Ln","address2":null,"address3":null,"city":"City of London","countryCode":null,"county":"GB","latitude":51.521706,"longitude":-0.072289,"postalCode":null,"region":"Greater London"},"offersCount":0,"openNow":-1,"ratingsCount":0,"tradingName":"Bengal Village Brick Lane"},{"id":"Google:1991525865","distance":34,"service":"Google","detailsUrl":"http://www.google.com/maps/place?source=uds&q=Restaurants&cid=8281556795766140179","advKey":null,"contact":{"blogUrl":null,"email":null,"facebook":null,"fax":null,"foursquare":null,"mobile":null,"phone":"020 7001 7750","twitter":null,"websiteUrl":null},"displayName":null,"photoUrl":null,"thumbUrl":null,"isSponsored":false,"isUserGenerated":false,"isVerified":false,"location":{"fullAddress":"79 Brick Lane, City of London, London, Greater London E1 6QL, United Kingdom","address1":"79 Brick Lane","address2":null,"address3":null,"city":"London","countryCode":null,"county":"GB","latitude":51.521706,"longitude":-0.072289,"postalCode":null,"region":"Greater London"},"offersCount":0,"openNow":-1,"ratingsCount":0,"tradingName":"The Shampan"},{"id":"Google:8197786175","distance":34,"service":"Google","detailsUrl":"http://www.google.com/maps/place?source=uds&q=Restaurants&cid=2915335557656452653","advKey":null,"contact":{"blogUrl":null,"email":null,"facebook":null,"fax":null,"foursquare":null,"mobile":null,"phone":"020 7247 5855","twitter":null,"websiteUrl":null},"displayName":null,"photoUrl":null,"thumbUrl":null,"isSponsored":false,"isUserGenerated":false,"isVerified":false,"location":{"fullAddress":"71 Brick Lane, Shadwell E1 6QL, United Kingdom","address1":"71 Brick Lane","address2":null,"address3":null,"city":"Shadwell","countryCode":null,"county":"GB","latitude":51.521706,"longitude":-0.072289,"postalCode":null,"region":null},"offersCount":0,"openNow":-1,"ratingsCount":0,"tradingName":"Standard Balti House"},{"id":"Google:3078342099","distance":124,"service":"Google","detailsUrl":"http://www.google.com/maps/place?source=uds&q=Restaurants&cid=5535965596318431927","advKey":null,"contact":{"blogUrl":null,"email":null,"facebook":null,"fax":null,"foursquare":null,"mobile":null,"phone":"020 7377 5526","twitter":null,"websiteUrl":null},"displayName":null,"photoUrl":null,"thumbUrl":null,"isSponsored":false,"isUserGenerated":false,"isVerified":false,"location":{"fullAddress":"134 Brick Lane, City of London, London, Greater London E1 6RU, United Kingdom","address1":"134 Brick Lane","address2":null,"address3":null,"city":"London","countryCode":null,"county":"GB","latitude":51.520614,"longitude":-0.071775,"postalCode":null,"region":"Greater London"},"offersCount":0,"openNow":-1,"ratingsCount":0,"tradingName":"Cinnamon"},{"id":"Google:3609711024","distance":126,"service":"Google","detailsUrl":"http://www.google.com/maps/place?source=uds&q=Restaurants&cid=14363575840278892983","advKey":null,"contact":{"blogUrl":null,"email":null,"facebook":null,"fax":null,"foursquare":null,"mobile":null,"phone":"020 7247 7824","twitter":null,"websiteUrl":null},"displayName":null,"photoUrl":null,"thumbUrl":null,"isSponsored":false,"isUserGenerated":false,"isVerified":false,"location":{"fullAddress":"136 Brick Lane, London, Greater London E1 6RU, United Kingdom","address1":"136 Brick Lane","address2":null,"address3":null,"city":"London","countryCode":null,"county":"GB","latitude":51.520596,"longitude":-0.071776,"postalCode":null,"region":"Greater London"},"offersCount":0,"openNow":-1,"ratingsCount":0,"tradingName":"Sheba"},{"id":"Google:8781401213","distance":139,"service":"Google","detailsUrl":"http://www.google.com/maps/place?source=uds&q=Restaurants&cid=9780268565679925229","advKey":null,"contact":{"blogUrl":null,"email":null,"facebook":null,"fax":null,"foursquare":null,"mobile":null,"phone":"020 7247 8210","twitter":null,"websiteUrl":null},"displayName":null,"photoUrl":null,"thumbUrl":null,"isSponsored":false,"isUserGenerated":false,"isVerified":false,"location":{"fullAddress":"132 Brick Lane, London, Greater London E1 6RU, United Kingdom","address1":"132 Brick Lane","address2":null,"address3":null,"city":"London","countryCode":null,"county":"GB","latitude":51.520478,"longitude":-0.071785,"postalCode":null,"region":"Greater London"},"offersCount":0,"openNow":-1,"ratingsCount":0,"tradingName":"Aladin Brick Lane"},{"id":"3435","distance":415,"service":"NearMe","detailsUrl":null,"advKey":null,"contact":{"blogUrl":null,"email":null,"facebook":null,"fax":null,"foursquare":null,"mobile":null,"phone":"+44 20 3116 2000","twitter":null,"websiteUrl":"http://www.giraffe.net/"},"displayName":"giraffe_3435","photoUrl":"http://www.getnearme.com/data/merchants/2012/04/giraffe/giraffe_3435/vhc0Ti12hb_640x480.jpg","thumbUrl":"http://www.getnearme.com/data/merchants/2012/04/giraffe/giraffe_3435/vhc0Ti12hb_72x54.jpg","isSponsored":false,"isUserGenerated":false,"isVerified":false,"location":{"fullAddress":"Spitalfields, E1 6DW London, United Kingdom","address1":"Spitalfields","address2":null,"address3":null,"city":"London","countryCode":"GB","county":null,"latitude":51.519731,"longitude":-0.07685,"postalCode":"E1 6DW","region":"GB"},"offersCount":0,"openNow":-1,"ratingsCount":0,"tradingName":"Giraffe"},{"id":"7971","distance":1315,"service":"NearMe","detailsUrl":null,"advKey":"d8cc1f976f3f4625985a69b815bf89fd","contact":{"blogUrl":null,"email":null,"facebook":null,"fax":null,"foursquare":null,"mobile":null,"phone":"0207 998 0909","twitter":null,"websiteUrl":"http://www.pizzahut.co.uk"},"displayName":"hut_7971","photoUrl":"http://www.getnearme.com/data/merchants/2012/04/pizzahutuk/hut_7971/d6kGSahkgo_640x480.png","thumbUrl":"http://www.getnearme.com/data/merchants/2012/04/pizzahutuk/hut_7971/d6kGSahkgo_72x54.png","isSponsored":false,"isUserGenerated":false,"isVerified":false,"location":{"fullAddress":"249 Cambridge Heath Road, Bethnal Green, E2 6FG London, United Kingdom","address1":"249 Cambridge Heath Road, Bethnal Green","address2":null,"address3":null,"city":"London","countryCode":"GB","county":null,"latitude":51.526294,"longitude":-0.05424,"postalCode":"E2 6FG","region":"GB"},"offersCount":0,"openNow":-1,"ratingsCount":0,"tradingName":"Pizza Hut Delivery"},{"id":"3431","distance":2645,"service":"NearMe","detailsUrl":null,"advKey":null,"contact":{"blogUrl":null,"email":null,"facebook":null,"fax":null,"foursquare":null,"mobile":null,"phone":"+44 20 7359 5999","twitter":null,"websiteUrl":"http://www.giraffe.net/"},"displayName":"giraffe_3431","photoUrl":"http://www.getnearme.com/data/merchants/2012/04/giraffe/giraffe_3431/h1qQQLGsLt_640x480.jpg","thumbUrl":"http://www.getnearme.com/data/merchants/2012/04/giraffe/giraffe_3431/h1qQQLGsLt_72x54.jpg","isSponsored":false,"isUserGenerated":false,"isVerified":false,"location":{"fullAddress":"29-31 Essex Road, N1 2SA London, United Kingdom","address1":"29-31 Essex Road","address2":null,"address3":null,"city":"London","countryCode":"GB","county":null,"latitude":51.536821,"longitude":-0.10135,"postalCode":"N1 2SA","region":"GB"},"offersCount":0,"openNow":-1,"ratingsCount":0,"tradingName":"Giraffe"},{"id":"7822","distance":2936,"service":"NearMe","detailsUrl":null,"advKey":"d8cc1f976f3f4625985a69b815bf89fd","contact":{"blogUrl":null,"email":null,"facebook":null,"fax":null,"foursquare":null,"mobile":null,"phone":"020 8986 6886","twitter":null,"websiteUrl":"http://www.pizzahut.co.uk"},"displayName":"hut_7822","photoUrl":"http://www.getnearme.com/data/merchants/2012/04/pizzahutuk/hut_7822/uFL0A7KElr_640x480.png","thumbUrl":"http://www.getnearme.com/data/merchants/2012/04/pizzahutuk/hut_7822/uFL0A7KElr_72x54.png","isSponsored":false,"isUserGenerated":false,"isVerified":false,"location":{"fullAddress":"321 Mare Street, Hackney, E8 1EJ London, United Kingdom","address1":"321 Mare Street, Hackney","address2":null,"address3":null,"city":"London","countryCode":"GB","county":null,"latitude":51.54566,"longitude":-0.053818,"postalCode":"E8 1EJ","region":"GB"},"offersCount":0,"openNow":-1,"ratingsCount":0,"tradingName":"Pizza Hut Delivery"},{"id":"7593","distance":2965,"service":"NearMe","detailsUrl":null,"advKey":"d8cc1f976f3f4625985a69b815bf89fd","contact":{"blogUrl":null,"email":null,"facebook":null,"fax":null,"foursquare":null,"mobile":null,"phone":"020 7354 5055","twitter":null,"websiteUrl":"http://www.pizzahut.co.uk"},"displayName":"hut_7593","photoUrl":"http://www.getnearme.com/data/merchants/2012/04/pizzahutuk/hut_7593/78pwBnK0nV_640x480.png","thumbUrl":"http://www.getnearme.com/data/merchants/2012/04/pizzahutuk/hut_7593/78pwBnK0nV_72x54.png","isSponsored":false,"isUserGenerated":false,"isVerified":false,"location":{"fullAddress":"169 Upper Street, Islington, N1 1RG London, United Kingdom","address1":"169 Upper Street, Islington","address2":null,"address3":null,"city":"London","countryCode":"GB","county":null,"latitude":51.540911,"longitude":-0.101572,"postalCode":"N1 1RG","region":"GB"},"offersCount":0,"openNow":-1,"ratingsCount":0,"tradingName":"Pizza Hut Delivery"},{"id":"7519","distance":3460,"service":"NearMe","detailsUrl":null,"advKey":"d8cc1f976f3f4625985a69b815bf89fd","contact":{"blogUrl":null,"email":null,"facebook":null,"fax":null,"foursquare":null,"mobile":null,"phone":"020 7837 3934","twitter":null,"websiteUrl":"http://www.pizzahut.co.uk"},"displayName":"hut_7519","photoUrl":"http://www.getnearme.com/data/merchants/2012/04/pizzahutuk/hut_7519/n6xyfB3ZTa_640x480.png","thumbUrl":"http://www.getnearme.com/data/merchants/2012/04/pizzahutuk/hut_7519/n6xyfB3ZTa_72x54.png","isSponsored":false,"isUserGenerated":false,"isVerified":false,"location":{"fullAddress":"150 Southampton Row, WC1B 5AL London, United Kingdom","address1":"150 Southampton Row","address2":null,"address3":null,"city":"London","countryCode":"GB","county":null,"latitude":51.520983,"longitude":-0.121791,"postalCode":"WC1B 5AL","region":"GB"},"offersCount":0,"openNow":-1,"ratingsCount":0,"tradingName":"Pizza Hut"},{"id":"7492","distance":3571,"service":"NearMe","detailsUrl":null,"advKey":"d8cc1f976f3f4625985a69b815bf89fd","contact":{"blogUrl":null,"email":null,"facebook":null,"fax":null,"foursquare":null,"mobile":null,"phone":"020 7231 1414","twitter":null,"websiteUrl":"http://www.pizzahut.co.uk"},"displayName":"hut_7492","photoUrl":"http://www.getnearme.com/data/merchants/2012/04/pizzahutuk/hut_7492/ZVisZruTSn_640x480.png","thumbUrl":"http://www.getnearme.com/data/merchants/2012/04/pizzahutuk/hut_7492/ZVisZruTSn_72x54.png","isSponsored":false,"isUserGenerated":false,"isVerified":false,"location":{"fullAddress":"The Mast Leisure Complex, 5 Teredo St, SE16 7LW London, United Kingdom","address1":"The Mast Leisure Complex, 5 Teredo St","address2":null,"address3":null,"city":"London","countryCode":"GB","county":null,"latitude":51.495434,"longitude":-0.042155,"postalCode":"SE16 7LW","region":"GB"},"offersCount":0,"openNow":-1,"ratingsCount":0,"tradingName":"Pizza Hut"},{"id":"3779","distance":3577,"service":"NearMe","detailsUrl":null,"advKey":null,"contact":{"blogUrl":null,"email":null,"facebook":null,"fax":null,"foursquare":null,"mobile":null,"phone":"+44 20 7928 2004","twitter":null,"websiteUrl":"http://www.giraffe.net/"},"displayName":"giraffe_3779","photoUrl":"http://www.getnearme.com/data/merchants/2012/04/giraffe/giraffe_3779/pjEzIJOln5_640x480.jpg","thumbUrl":"http://www.getnearme.com/data/merchants/2012/04/giraffe/giraffe_3779/pjEzIJOln5_72x54.jpg","isSponsored":false,"isUserGenerated":false,"isVerified":false,"location":{"fullAddress":"Festival Riverside, Southbank Centre, Belevedere Road, SE1 8XX London, United Kingdom","address1":"Festival Riverside, Southbank Centre, Belevedere Road","address2":null,"address3":null,"city":"London","countryCode":"GB","county":null,"latitude":51.506365,"longitude":-0.117202,"postalCode":"SE1 8XX","region":"GB"},"offersCount":0,"openNow":-1,"ratingsCount":0,"tradingName":"Giraffe"},{"id":"3438","distance":3589,"service":"NearMe","detailsUrl":null,"advKey":null,"contact":{"blogUrl":null,"email":null,"facebook":null,"fax":null,"foursquare":null,"mobile":null,"phone":"+44 20 7812 1336","twitter":null,"websiteUrl":"http://www.giraffe.net/"},"displayName":"giraffe_3438","photoUrl":"http://www.getnearme.com/data/merchants/2012/04/giraffe/giraffe_3438/zt5mnnf47j_640x480.jpg","thumbUrl":"http://www.getnearme.com/data/merchants/2012/04/giraffe/giraffe_3438/zt5mnnf47j_72x54.jpg","isSponsored":false,"isUserGenerated":false,"isVerified":false,"location":{"fullAddress":"19-21 Brunswick Centre, WC1N 1AF London, United Kingdom","address1":"19-21 Brunswick Centre","address2":null,"address3":null,"city":"London","countryCode":"GB","county":null,"latitude":51.524219,"longitude":-0.123513,"postalCode":"WC1N 1AF","region":"GB"},"offersCount":0,"openNow":-1,"ratingsCount":0,"tradingName":"Giraffe"},{"id":"7457","distance":3638,"service":"NearMe","detailsUrl":null,"advKey":"d8cc1f976f3f4625985a69b815bf89fd","contact":{"blogUrl":null,"email":null,"facebook":null,"fax":null,"foursquare":null,"mobile":null,"phone":"020 7497 0909","twitter":null,"websiteUrl":"http://www.pizzahut.co.uk"},"displayName":"hut_7457","photoUrl":"http://www.getnearme.com/data/merchants/2012/04/pizzahutuk/hut_7457/QxAiaklaU5_640x480.png","thumbUrl":"http://www.getnearme.com/data/merchants/2012/04/pizzahutuk/hut_7457/QxAiaklaU5_72x54.png","isSponsored":false,"isUserGenerated":false,"isVerified":false,"location":{"fullAddress":"1A Henrietta Street, Covent Garden, WC2E 8PP London, United Kingdom","address1":"1A Henrietta Street, Covent Garden","address2":null,"address3":null,"city":"London","countryCode":"GB","county":null,"latitude":51.510841,"longitude":-0.121372,"postalCode":"WC2E 8PP","region":"GB"},"offersCount":0,"openNow":-1,"ratingsCount":0,"tradingName":"Pizza Hut"}],"count":18}}