{"meta":{"code":200},"response":{"venues":[{"id":"Google:3397178862","distance":416,"service":"Google","detailsUrl":"http://www.google.com/maps/place?source=uds&q=Mobile+Phones&cid=17541276519856879094","advKey":null,"contact":{"blogUrl":null,"email":null,"facebook":null,"fax":null,"foursquare":null,"mobile":null,"phone":"020 7247 0101","twitter":null,"websiteUrl":null},"displayName":null,"photoUrl":null,"thumbUrl":null,"isSponsored":false,"isUserGenerated":false,"isVerified":false,"location":{"fullAddress":"32 Shoreditch High Street, Shadwell, London E1 6PG, United Kingdom","address1":"32 Shoreditch High Street","address2":null,"address3":null,"city":"London","countryCode":null,"county":"GB","latitude":51.522672,"longitude":-0.077621,"postalCode":null,"region":null},"offersCount":0,"openNow":-1,"ratingsCount":0,"tradingName":"Cortel"},{"id":"Google:2207016331","distance":422,"service":"Google","detailsUrl":"http://www.google.com/maps/place?source=uds&q=Mobile+Phones&cid=4843975176990706047","advKey":null,"contact":{"blogUrl":null,"email":null,"facebook":null,"fax":null,"foursquare":null,"mobile":null,"phone":"020 7749 2601","twitter":null,"websiteUrl":null},"displayName":null,"photoUrl":null,"thumbUrl":null,"isSponsored":false,"isUserGenerated":false,"isVerified":false,"location":{"fullAddress":"Suite 7.02, The Tea Building, 56-65 Shoreditch High Street, London, E1 6JJ, United Kingdom","address1":"Suite 7.02, The Tea Building, 56-65 Shoreditch High Street","address2":null,"address3":null,"city":"London","countryCode":null,"county":"GB","latitude":51.523884,"longitude":-0.076818,"postalCode":null,"region":null},"offersCount":0,"openNow":-1,"ratingsCount":0,"tradingName":"Communicator"},{"id":"Google:7087837477","distance":517,"service":"Google","detailsUrl":"http://www.google.com/maps/place?source=uds&q=Mobile+Phones&cid=2879144355385408189","advKey":null,"contact":{"blogUrl":null,"email":null,"facebook":null,"fax":null,"foursquare":null,"mobile":null,"phone":"020 7539 9233","twitter":null,"websiteUrl":null},"displayName":null,"photoUrl":null,"thumbUrl":null,"isSponsored":false,"isUserGenerated":false,"isVerified":false,"location":{"fullAddress":"40 Osborn Street, London, Greater London E1 6TD, United Kingdom","address1":"40 Osborn Street","address2":null,"address3":null,"city":"London","countryCode":null,"county":"GB","latitude":51.517171,"longitude":-0.070294,"postalCode":null,"region":"Greater London"},"offersCount":0,"openNow":-1,"ratingsCount":0,"tradingName":"Cellular Links"},{"id":"Google:6002363404","distance":636,"service":"Google","detailsUrl":"http://www.google.com/maps/place?source=uds&q=Mobile+Phones&cid=15288259887174208830","advKey":null,"contact":{"blogUrl":null,"email":null,"facebook":null,"fax":null,"foursquare":null,"mobile":null,"phone":"020 7426 0880","twitter":null,"websiteUrl":null},"displayName":null,"photoUrl":null,"thumbUrl":null,"isSponsored":false,"isUserGenerated":false,"isVerified":false,"location":{"fullAddress":"41 Goulston Street, Whitechapel, London E1 7TP, United Kingdom","address1":"41 Goulston Street","address2":null,"address3":null,"city":"London","countryCode":null,"county":"GB","latitude":51.516435,"longitude":-0.07527,"postalCode":null,"region":null},"offersCount":0,"openNow":-1,"ratingsCount":0,"tradingName":"A S B (UK) Ltd"},{"id":"Google:0865388412","distance":727,"service":"Google","detailsUrl":"http://www.google.com/maps/place?source=uds&q=Mobile+Phones&cid=14148294984864013672","advKey":null,"contact":{"blogUrl":null,"email":null,"facebook":null,"fax":null,"foursquare":null,"mobile":null,"phone":"020 7638 6156","twitter":null,"websiteUrl":null},"displayName":null,"photoUrl":null,"thumbUrl":null,"isSponsored":false,"isUserGenerated":false,"isVerified":false,"location":{"fullAddress":"Unit 15 The Concourse, Liverpool Street Station, Liverpool Street, City of London, London, Greater London EC2M 7PY, United Kingdom","address1":"Unit 15 The Concourse, Liverpool Street Station, Liverpool Street","address2":null,"address3":null,"city":"London","countryCode":null,"county":"GB","latitude":51.519059,"longitude":-0.081381,"postalCode":null,"region":"Greater London"},"offersCount":0,"openNow":-1,"ratingsCount":0,"tradingName":"Three"},{"id":"Google:4760776213","distance":748,"service":"Google","detailsUrl":"http://www.google.com/maps/place?source=uds&q=Mobile+Phones&cid=14842595502529115507","advKey":null,"contact":{"blogUrl":null,"email":null,"facebook":null,"fax":null,"foursquare":null,"mobile":null,"phone":"0870 168 2426","twitter":null,"websiteUrl":null},"displayName":null,"photoUrl":null,"thumbUrl":null,"isSponsored":false,"isUserGenerated":false,"isVerified":false,"location":{"fullAddress":"172 Bishopsgate, London, GB EC2M 4NQ, United Kingdom","address1":"172 Bishopsgate","address2":null,"address3":null,"city":"London","countryCode":null,"county":"GB","latitude":51.517553,"longitude":-0.080262,"postalCode":null,"region":"GB"},"offersCount":0,"openNow":-1,"ratingsCount":0,"tradingName":"Carphone Warehouse"},{"id":"3666","distance":930,"service":"NearMe","detailsUrl":null,"advKey":null,"contact":{"blogUrl":null,"email":null,"facebook":null,"fax":null,"foursquare":null,"mobile":null,"phone":null,"twitter":null,"websiteUrl":"http://www.t-mobile.co.uk/"},"displayName":"t_mobile_3666","photoUrl":"http://www.getnearme.com/data/merchants/2012/04/tmobile/t_mobile_3666/yTUlJcUUwN_640x480.png","thumbUrl":"http://www.getnearme.com/data/merchants/2012/04/tmobile/t_mobile_3666/yTUlJcUUwN_72x54.png","isSponsored":false,"isUserGenerated":false,"isVerified":false,"location":{"fullAddress":"78 Old Broad Street, EC2M 1QP London, United Kingdom","address1":"78 Old Broad Street","address2":null,"address3":null,"city":"London","countryCode":"GB","county":null,"latitude":51.517396,"longitude":-0.083288,"postalCode":"EC2M 1QP","region":"GB"},"offersCount":0,"openNow":-1,"ratingsCount":0,"tradingName":"T-Mobile"},{"id":"1374","distance":1138,"service":"NearMe","detailsUrl":null,"advKey":null,"contact":{"blogUrl":null,"email":null,"facebook":null,"fax":null,"foursquare":null,"mobile":null,"phone":null,"twitter":null,"websiteUrl":"http://orangeworld.co.uk/p/apps/home"},"displayName":"orange_1374","photoUrl":"http://www.getnearme.com/data/merchants/2012/04/orange/orange_1374/CmfD0qwbag_640x480.png","thumbUrl":"http://www.getnearme.com/data/merchants/2012/04/orange/orange_1374/CmfD0qwbag_72x54.png","isSponsored":false,"isUserGenerated":false,"isVerified":false,"location":{"fullAddress":"82 Moorgate, City Of London, EC2M 6SE London, United Kingdom","address1":"82 Moorgate, City Of London","address2":null,"address3":null,"city":"London","countryCode":"GB","county":null,"latitude":51.519156,"longitude":-0.0877048,"postalCode":"EC2M 6SE","region":null},"offersCount":0,"openNow":-1,"ratingsCount":0,"tradingName":"The Orange Shop"},{"id":"3652","distance":1173,"service":"NearMe","detailsUrl":null,"advKey":null,"contact":{"blogUrl":null,"email":null,"facebook":null,"fax":null,"foursquare":null,"mobile":null,"phone":null,"twitter":null,"websiteUrl":"http://www.t-mobile.co.uk/"},"displayName":"t_mobile_3652","photoUrl":"http://www.getnearme.com/data/merchants/2012/04/tmobile/t_mobile_3652/xF7DhUFDbm_640x480.png","thumbUrl":"http://www.getnearme.com/data/merchants/2012/04/tmobile/t_mobile_3652/xF7DhUFDbm_72x54.png","isSponsored":false,"isUserGenerated":false,"isVerified":false,"location":{"fullAddress":"142/171 Moorgate, EC2M 6XQ London, United Kingdom","address1":"142/171 Moorgate","address2":null,"address3":null,"city":"London","countryCode":"GB","county":null,"latitude":51.518861,"longitude":-0.088111,"postalCode":"EC2M 6XQ","region":"GB"},"offersCount":0,"openNow":-1,"ratingsCount":0,"tradingName":"T-Mobile"},{"id":"8730","distance":1200,"service":"NearMe","detailsUrl":null,"advKey":null,"contact":{"blogUrl":null,"email":"talktous@phones4u.co.uk","facebook":null,"fax":null,"foursquare":null,"mobile":null,"phone":"020 7496 3511","twitter":null,"websiteUrl":"http://www.phones4u.co.uk/stores/england/barbican-443"},"displayName":"p4u_8730","photoUrl":"http://www.getnearme.com/data/merchants/2012/04/phones4u/p4u_8730/RomcCQj4Uo_640x480.png","thumbUrl":"http://www.getnearme.com/data/merchants/2012/04/phones4u/p4u_8730/RomcCQj4Uo_72x54.png","isSponsored":false,"isUserGenerated":false,"isVerified":false,"location":{"fullAddress":"14-20 Chiswell Street, London, EC1Y 4TY Barbican, United Kingdom","address1":"14-20 Chiswell Street, London","address2":null,"address3":null,"city":"Barbican","countryCode":"GB","county":"Greater London","latitude":51.520875,"longitude":-0.089088,"postalCode":"EC1Y 4TY","region":null},"offersCount":0,"openNow":-1,"ratingsCount":0,"tradingName":"Phones 4u"},{"id":"3621","distance":1245,"service":"NearMe","detailsUrl":null,"advKey":null,"contact":{"blogUrl":null,"email":null,"facebook":null,"fax":null,"foursquare":null,"mobile":null,"phone":null,"twitter":null,"websiteUrl":"http://www.t-mobile.co.uk/"},"displayName":"t_mobile_3621","photoUrl":"http://www.getnearme.com/data/merchants/2012/04/tmobile/t_mobile_3621/NYja1J9x9P_640x480.png","thumbUrl":"http://www.getnearme.com/data/merchants/2012/04/tmobile/t_mobile_3621/NYja1J9x9P_72x54.png","isSponsored":false,"isUserGenerated":false,"isVerified":false,"location":{"fullAddress":"1 Leadenhall St, EC3V 1PP City Of London, United Kingdom","address1":"1 Leadenhall St","address2":null,"address3":null,"city":"City Of London","countryCode":"GB","county":null,"latitude":51.513356,"longitude":-0.083739,"postalCode":"EC3V 1PP","region":"GB"},"offersCount":0,"openNow":-1,"ratingsCount":0,"tradingName":"T-Mobile"},{"id":"1599","distance":1298,"service":"NearMe","detailsUrl":null,"advKey":null,"contact":{"blogUrl":null,"email":null,"facebook":null,"fax":null,"foursquare":null,"mobile":null,"phone":null,"twitter":null,"websiteUrl":"http://orangeworld.co.uk/p/apps/home"},"displayName":"orange_1599","photoUrl":"http://www.getnearme.com/data/merchants/2012/04/orange/orange_1599/bRZLZtb2xK_640x480.png","thumbUrl":"http://www.getnearme.com/data/merchants/2012/04/orange/orange_1599/bRZLZtb2xK_72x54.png","isSponsored":false,"isUserGenerated":false,"isVerified":false,"location":{"fullAddress":"35-36 Leadenhall Market, EC3V 1LR Leadenhall, United Kingdom","address1":"35-36 Leadenhall Market","address2":null,"address3":null,"city":"Leadenhall","countryCode":"GB","county":null,"latitude":51.512876,"longitude":-0.084007,"postalCode":"EC3V 1LR","region":"London"},"offersCount":0,"openNow":-1,"ratingsCount":0,"tradingName":"The Orange Shop"},{"id":"3522","distance":1682,"service":"NearMe","detailsUrl":null,"advKey":null,"contact":{"blogUrl":null,"email":null,"facebook":null,"fax":null,"foursquare":null,"mobile":null,"phone":null,"twitter":null,"websiteUrl":"http://www.t-mobile.co.uk/"},"displayName":"t_mobile_3522","photoUrl":"http://www.getnearme.com/data/merchants/2012/04/tmobile/t_mobile_3522/7oJENMIxSo_640x480.png","thumbUrl":"http://www.getnearme.com/data/merchants/2012/04/tmobile/t_mobile_3522/7oJENMIxSo_72x54.png","isSponsored":false,"isUserGenerated":false,"isVerified":false,"location":{"fullAddress":"97/98 Cheapside, EC2V 6DY London, United Kingdom","address1":"97/98 Cheapside","address2":null,"address3":null,"city":"London","countryCode":"GB","county":null,"latitude":51.514068,"longitude":-0.092745,"postalCode":"EC2V 6DY","region":"GB"},"offersCount":0,"openNow":-1,"ratingsCount":0,"tradingName":"T-Mobile"},{"id":"1625","distance":1709,"service":"NearMe","detailsUrl":null,"advKey":null,"contact":{"blogUrl":null,"email":null,"facebook":null,"fax":null,"foursquare":null,"mobile":null,"phone":null,"twitter":null,"websiteUrl":"http://orangeworld.co.uk/p/apps/home"},"displayName":"orange_1625","photoUrl":"http://www.getnearme.com/data/merchants/2012/04/orange/orange_1625/l4pOQ1DFQO_640x480.png","thumbUrl":"http://www.getnearme.com/data/merchants/2012/04/orange/orange_1625/l4pOQ1DFQO_72x54.png","isSponsored":false,"isUserGenerated":false,"isVerified":false,"location":{"fullAddress":"60 Cheapside, EC2V 6JS London, United Kingdom","address1":"60 Cheapside","address2":null,"address3":null,"city":"London","countryCode":"GB","county":null,"latitude":51.5139253,"longitude":-0.0930616,"postalCode":"EC2V 6JS","region":null},"offersCount":0,"openNow":-1,"ratingsCount":0,"tradingName":"The Orange Shop"},{"id":"8729","distance":2070,"service":"NearMe","detailsUrl":null,"advKey":null,"contact":{"blogUrl":null,"email":"talktous@phones4u.co.uk","facebook":null,"fax":null,"foursquare":null,"mobile":null,"phone":"020 7709 8991","twitter":null,"websiteUrl":"http://www.phones4u.co.uk/stores/england/mile-end-37"},"displayName":"p4u_8729","photoUrl":"http://www.getnearme.com/data/merchants/2012/04/phones4u/p4u_8729/Dpl7czWIYQ_640x480.png","thumbUrl":"http://www.getnearme.com/data/merchants/2012/04/phones4u/p4u_8729/Dpl7czWIYQ_72x54.png","isSponsored":false,"isUserGenerated":false,"isVerified":false,"location":{"fullAddress":"Anchor House Retail Park, Mile End Rd, E1 4UJ Mile End, United Kingdom","address1":"Anchor House Retail Park, Mile End Rd","address2":null,"address3":null,"city":"Mile End","countryCode":"GB","county":"Greater London","latitude":51.522489,"longitude":-0.041885,"postalCode":"E1 4UJ","region":null},"offersCount":0,"openNow":-1,"ratingsCount":0,"tradingName":"Phones 4u"},{"id":"3568","distance":2472,"service":"NearMe","detailsUrl":null,"advKey":null,"contact":{"blogUrl":null,"email":null,"facebook":null,"fax":null,"foursquare":null,"mobile":null,"phone":null,"twitter":null,"websiteUrl":"http://www.t-mobile.co.uk/"},"displayName":"t_mobile_3568","photoUrl":"http://www.getnearme.com/data/merchants/2012/04/tmobile/t_mobile_3568/b1zTUKDI5d_640x480.png","thumbUrl":"http://www.getnearme.com/data/merchants/2012/04/tmobile/t_mobile_3568/b1zTUKDI5d_72x54.png","isSponsored":false,"isUserGenerated":false,"isVerified":false,"location":{"fullAddress":"93 Fleet Street, EC4Y 1DH London, United Kingdom","address1":"93 Fleet Street","address2":null,"address3":null,"city":"London","countryCode":"GB","county":null,"latitude":51.514069,"longitude":-0.105336,"postalCode":"EC4Y 1DH","region":"GB"},"offersCount":0,"openNow":-1,"ratingsCount":0,"tradingName":"T-Mobile"}],"count":16}}