{"meta":{"code":200},"response":{"venues":[{"id":"3435","distance":415,"service":"NearMe","detailsUrl":null,"advKey":null,"contact":{"blogUrl":null,"email":null,"facebook":null,"fax":null,"foursquare":null,"mobile":null,"phone":"+44 20 3116 2000","twitter":null,"websiteUrl":"http://www.giraffe.net/"},"displayName":"giraffe_3435","photoUrl":"http://www.getnearme.com/data/merchants/2012/04/giraffe/giraffe_3435/vhc0Ti12hb_640x480.jpg","thumbUrl":"http://www.getnearme.com/data/merchants/2012/04/giraffe/giraffe_3435/vhc0Ti12hb_72x54.jpg","isSponsored":false,"isUserGenerated":false,"isVerified":false,"location":{"fullAddress":"Spitalfields, E1 6DW London, United Kingdom","address1":"Spitalfields","address2":null,"address3":null,"city":"London","countryCode":"GB","county":null,"latitude":51.519731,"longitude":-0.07685,"postalCode":"E1 6DW","region":"GB"},"offersCount":0,"openNow":-1,"ratingsCount":0,"tradingName":"Giraffe"},{"id":"3431","distance":2645,"service":"NearMe","detailsUrl":null,"advKey":null,"contact":{"blogUrl":null,"email":null,"facebook":null,"fax":null,"foursquare":null,"mobile":null,"phone":"+44 20 7359 5999","twitter":null,"websiteUrl":"http://www.giraffe.net/"},"displayName":"giraffe_3431","photoUrl":"http://www.getnearme.com/data/merchants/2012/04/giraffe/giraffe_3431/h1qQQLGsLt_640x480.jpg","thumbUrl":"http://www.getnearme.com/data/merchants/2012/04/giraffe/giraffe_3431/h1qQQLGsLt_72x54.jpg","isSponsored":false,"isUserGenerated":false,"isVerified":false,"location":{"fullAddress":"29-31 Essex Road, N1 2SA London, United Kingdom","address1":"29-31 Essex Road","address2":null,"address3":null,"city":"London","countryCode":"GB","county":null,"latitude":51.536821,"longitude":-0.10135,"postalCode":"N1 2SA","region":"GB"},"offersCount":0,"openNow":-1,"ratingsCount":0,"tradingName":"Giraffe"},{"id":"3779","distance":3577,"service":"NearMe","detailsUrl":null,"advKey":null,"contact":{"blogUrl":null,"email":null,"facebook":null,"fax":null,"foursquare":null,"mobile":null,"phone":"+44 20 7928 2004","twitter":null,"websiteUrl":"http://www.giraffe.net/"},"displayName":"giraffe_3779","photoUrl":"http://www.getnearme.com/data/merchants/2012/04/giraffe/giraffe_3779/pjEzIJOln5_640x480.jpg","thumbUrl":"http://www.getnearme.com/data/merchants/2012/04/giraffe/giraffe_3779/pjEzIJOln5_72x54.jpg","isSponsored":false,"isUserGenerated":false,"isVerified":false,"location":{"fullAddress":"Festival Riverside, Southbank Centre, Belevedere Road, SE1 8XX London, United Kingdom","address1":"Festival Riverside, Southbank Centre, Belevedere Road","address2":null,"address3":null,"city":"London","countryCode":"GB","county":null,"latitude":51.506365,"longitude":-0.117202,"postalCode":"SE1 8XX","region":"GB"},"offersCount":0,"openNow":-1,"ratingsCount":0,"tradingName":"Giraffe"},{"id":"3438","distance":3589,"service":"NearMe","detailsUrl":null,"advKey":null,"contact":{"blogUrl":null,"email":null,"facebook":null,"fax":null,"foursquare":null,"mobile":null,"phone":"+44 20 7812 1336","twitter":null,"websiteUrl":"http://www.giraffe.net/"},"displayName":"giraffe_3438","photoUrl":"http://www.getnearme.com/data/merchants/2012/04/giraffe/giraffe_3438/zt5mnnf47j_640x480.jpg","thumbUrl":"http://www.getnearme.com/data/merchants/2012/04/giraffe/giraffe_3438/zt5mnnf47j_72x54.jpg","isSponsored":false,"isUserGenerated":false,"isVerified":false,"location":{"fullAddress":"19-21 Brunswick Centre, WC1N 1AF London, United Kingdom","address1":"19-21 Brunswick Centre","address2":null,"address3":null,"city":"London","countryCode":"GB","county":null,"latitude":51.524219,"longitude":-0.123513,"postalCode":"WC1N 1AF","region":"GB"},"offersCount":0,"openNow":-1,"ratingsCount":0,"tradingName":"Giraffe"},{"id":"3429","distance":4222,"service":"NearMe","detailsUrl":null,"advKey":null,"contact":{"blogUrl":null,"email":null,"facebook":null,"fax":null,"foursquare":null,"mobile":null,"phone":"+44 20 7494 3491","twitter":null,"websiteUrl":"http://www.giraffe.net/"},"displayName":"giraffe_3429","photoUrl":"http://www.getnearme.com/data/merchants/2012/04/giraffe/giraffe_3429/GR9muhGGR8_640x480.jpg","thumbUrl":"http://www.getnearme.com/data/merchants/2012/04/giraffe/giraffe_3429/GR9muhGGR8_72x54.jpg","isSponsored":false,"isUserGenerated":false,"isVerified":false,"location":{"fullAddress":"11 Frith Street, W1D 4RB London, United Kingdom","address1":"11 Frith Street","address2":null,"address3":null,"city":"London","countryCode":"GB","county":null,"latitude":51.513884,"longitude":-0.131493,"postalCode":"W1D 4RB","region":"GB"},"offersCount":0,"openNow":-1,"ratingsCount":0,"tradingName":"Giraffe Bar & Grill"},{"id":"3428","distance":5330,"service":"NearMe","detailsUrl":null,"advKey":null,"contact":{"blogUrl":null,"email":null,"facebook":null,"fax":null,"foursquare":null,"mobile":null,"phone":"+44 20 3463 9808","twitter":null,"websiteUrl":"http://www.giraffe.net/"},"displayName":"giraffe_3428","photoUrl":"http://www.getnearme.com/data/merchants/2012/04/giraffe/giraffe_3428/MEM2dInzwP_640x480.jpg","thumbUrl":"http://www.getnearme.com/data/merchants/2012/04/giraffe/giraffe_3428/MEM2dInzwP_72x54.jpg","isSponsored":false,"isUserGenerated":false,"isVerified":false,"location":{"fullAddress":"304-305 The Loft, The Gallery, E20 1ET London, United Kingdom","address1":"304-305 The Loft, The Gallery","address2":null,"address3":null,"city":"London","countryCode":"GB","county":null,"latitude":51.542919,"longitude":-0.002661,"postalCode":"E20 1ET","region":"GB"},"offersCount":0,"openNow":-1,"ratingsCount":0,"tradingName":"Giraffe"},{"id":"3780","distance":5525,"service":"NearMe","detailsUrl":null,"advKey":null,"contact":{"blogUrl":null,"email":null,"facebook":null,"fax":null,"foursquare":null,"mobile":null,"phone":"+44 20 7486 1511","twitter":null,"websiteUrl":"http://www.giraffe.net/"},"displayName":"giraffe_3780","photoUrl":"http://www.getnearme.com/data/merchants/2012/05/giraffe/giraffe_3780/1_640x480.jpg","thumbUrl":"http://www.getnearme.com/data/merchants/2012/05/giraffe/giraffe_3780/1_72x54.jpg","isSponsored":false,"isUserGenerated":false,"isVerified":false,"location":{"fullAddress":"35 James Street, W1U 1EA London, United Kingdom","address1":"35 James Street","address2":null,"address3":null,"city":"London","countryCode":"GB","county":null,"latitude":51.515528,"longitude":-0.151013,"postalCode":"W1U 1EA","region":null},"offersCount":0,"openNow":1,"ratingsCount":0,"tradingName":"Giraffe Burgers"},{"id":"3430","distance":5565,"service":"NearMe","detailsUrl":null,"advKey":null,"contact":{"blogUrl":null,"email":null,"facebook":null,"fax":null,"foursquare":null,"mobile":null,"phone":"+44 20 7935 2333","twitter":null,"websiteUrl":"http://www.giraffe.net/"},"displayName":"giraffe_3430","photoUrl":"http://www.getnearme.com/data/merchants/2012/04/giraffe/giraffe_3430/D1cWIEZ3ZN_640x480.jpg","thumbUrl":"http://www.getnearme.com/data/merchants/2012/04/giraffe/giraffe_3430/D1cWIEZ3ZN_72x54.jpg","isSponsored":false,"isUserGenerated":false,"isVerified":false,"location":{"fullAddress":"6-8 Blandford Street, W1U 4AU London, United Kingdom","address1":"6-8 Blandford Street","address2":null,"address3":null,"city":"London","countryCode":"GB","county":null,"latitude":51.518431,"longitude":-0.152045,"postalCode":"W1U 4AU","region":"GB"},"offersCount":0,"openNow":-1,"ratingsCount":0,"tradingName":"Giraffe"},{"id":"3450","distance":5808,"service":"NearMe","detailsUrl":null,"advKey":null,"contact":{"blogUrl":null,"email":null,"facebook":null,"fax":null,"foursquare":null,"mobile":null,"phone":"+44 20 7233 8303","twitter":null,"websiteUrl":"http://www.giraffe.net/"},"displayName":"giraffe_3450","photoUrl":"http://www.getnearme.com/data/merchants/2012/04/giraffe/giraffe_3450/xbcvVHlSxb_640x480.jpg","thumbUrl":"http://www.getnearme.com/data/merchants/2012/04/giraffe/giraffe_3450/xbcvVHlSxb_72x54.jpg","isSponsored":false,"isUserGenerated":false,"isVerified":false,"location":{"fullAddress":"120 Wilton Road, SW1V 1JZ London, United Kingdom","address1":"120 Wilton Road","address2":null,"address3":null,"city":"London","countryCode":"GB","county":null,"latitude":51.493686,"longitude":-0.142588,"postalCode":"SW1V 1JZ","region":"GB"},"offersCount":0,"openNow":-1,"ratingsCount":0,"tradingName":"Giraffe"},{"id":"3457","distance":7213,"service":"NearMe","detailsUrl":null,"advKey":null,"contact":{"blogUrl":null,"email":null,"facebook":null,"fax":null,"foursquare":null,"mobile":null,"phone":"+44 20 7431 3812","twitter":null,"websiteUrl":"http://www.giraffe.net/"},"displayName":"giraffe_3457","photoUrl":"http://www.getnearme.com/data/merchants/2012/04/giraffe/giraffe_3457/sfeHtmxRCh_640x480.jpg","thumbUrl":"http://www.getnearme.com/data/merchants/2012/04/giraffe/giraffe_3457/sfeHtmxRCh_72x54.jpg","isSponsored":false,"isUserGenerated":false,"isVerified":false,"location":{"fullAddress":"196 Haverstock Hill, NW3 2AG London, United Kingdom","address1":"196 Haverstock Hill","address2":null,"address3":null,"city":"London","countryCode":"GB","county":null,"latitude":51.550846,"longitude":-0.164998,"postalCode":"NW3 2AG","region":"GB"},"offersCount":0,"openNow":-1,"ratingsCount":0,"tradingName":"Giraffe"}],"count":10}}