{"meta":{"code":200},"response":{"venues":[{"id":"Google:7075128468","distance":31,"service":"Google","detailsUrl":"http://www.google.com/maps/place?source=uds&q=Pizza&cid=11611532277343196889","advKey":null,"contact":{"blogUrl":null,"email":null,"facebook":null,"fax":null,"foursquare":null,"mobile":null,"phone":"020 7247 4117","twitter":null,"websiteUrl":null},"displayName":null,"photoUrl":null,"thumbUrl":null,"isSponsored":false,"isUserGenerated":false,"isVerified":false,"location":{"fullAddress":"London E1 6LY, United Kingdom","address1":null,"address2":null,"address3":null,"city":"London","countryCode":null,"county":"GB","latitude":51.522015,"longitude":-0.071845,"postalCode":null,"region":null},"offersCount":0,"openNow":-1,"ratingsCount":0,"tradingName":"Strada"},{"id":"Google:9189873374","distance":194,"service":"Google","detailsUrl":"http://www.google.com/maps/place?source=uds&q=Pizza&cid=13321114250744800916","advKey":null,"contact":{"blogUrl":null,"email":null,"facebook":null,"fax":null,"foursquare":null,"mobile":null,"phone":"020 7377 0808","twitter":null,"websiteUrl":null},"displayName":null,"photoUrl":null,"thumbUrl":null,"isSponsored":false,"isUserGenerated":false,"isVerified":false,"location":{"fullAddress":"2 Ely's Yard, Old Truman Brewery, Hanbury Street, London, Greater London E1 6QR, United Kingdom","address1":"2 Ely's Yard, Old Truman Brewery, Hanbury Street","address2":null,"address3":null,"city":"London","countryCode":null,"county":"GB","latitude":51.520388,"longitude":-0.073574,"postalCode":null,"region":"Greater London"},"offersCount":0,"openNow":-1,"ratingsCount":0,"tradingName":"Al Volo"},{"id":"Google:6211069795","distance":336,"service":"Google","detailsUrl":"http://www.google.com/maps/place?source=uds&q=Pizza&cid=4995347551853640806","advKey":null,"contact":{"blogUrl":null,"email":null,"facebook":null,"fax":null,"foursquare":null,"mobile":null,"phone":"0844 371 2554","twitter":null,"websiteUrl":null},"displayName":null,"photoUrl":null,"thumbUrl":null,"isSponsored":false,"isUserGenerated":false,"isVerified":false,"location":{"fullAddress":"Old Spitalfields Market, 4 Horner Square, Commercial Street, London E1 6EW, United Kingdom","address1":"Old Spitalfields Market, 4 Horner Square, Commercial Street","address2":null,"address3":null,"city":"London","countryCode":null,"county":"GB","latitude":51.519665,"longitude":-0.075335,"postalCode":null,"region":null},"offersCount":0,"openNow":-1,"ratingsCount":0,"tradingName":"Fire & Stone"},{"id":"Google:9778209033","distance":432,"service":"Google","detailsUrl":"http://www.google.com/maps/place?source=uds&q=Pizza&cid=4972189004022237367","advKey":null,"contact":{"blogUrl":null,"email":null,"facebook":null,"fax":null,"foursquare":null,"mobile":null,"phone":"020 7729 1888","twitter":null,"websiteUrl":null},"displayName":null,"photoUrl":null,"thumbUrl":null,"isSponsored":false,"isUserGenerated":false,"isVerified":false,"location":{"fullAddress":"56 Shoreditch High Street, London, Greater London E1 6JJ, United Kingdom","address1":"56 Shoreditch High Street","address2":null,"address3":null,"city":"London","countryCode":null,"county":"GB","latitude":51.523704,"longitude":-0.077172,"postalCode":null,"region":"Greater London"},"offersCount":0,"openNow":-1,"ratingsCount":0,"tradingName":"Pizza East"},{"id":"Google:2661443431","distance":448,"service":"Google","detailsUrl":"http://www.google.com/maps/place?source=uds&q=Pizza&cid=1632630328620635161","advKey":null,"contact":{"blogUrl":null,"email":null,"facebook":null,"fax":null,"foursquare":null,"mobile":null,"phone":"07918 197352","twitter":null,"websiteUrl":null},"displayName":null,"photoUrl":null,"thumbUrl":null,"isSponsored":false,"isUserGenerated":false,"isVerified":false,"location":{"fullAddress":"3 Redchurch Street, City of London, E2 7DJ, United Kingdom","address1":"3 Redchurch Street","address2":null,"address3":null,"city":null,"countryCode":null,"county":"GB","latitude":51.524387,"longitude":-0.076664,"postalCode":null,"region":null},"offersCount":0,"openNow":-1,"ratingsCount":0,"tradingName":"Story"},{"id":"Google:0867528818","distance":598,"service":"Google","detailsUrl":"http://www.google.com/maps/place?source=uds&q=Pizza&cid=921439831675033044","advKey":null,"contact":{"blogUrl":null,"email":null,"facebook":null,"fax":null,"foursquare":null,"mobile":null,"phone":"020 7247 2838","twitter":null,"websiteUrl":null},"displayName":null,"photoUrl":null,"thumbUrl":null,"isSponsored":false,"isUserGenerated":false,"isVerified":false,"location":{"fullAddress":"236 Bishopsgate, City of London, EC2M 4DQ, United Kingdom","address1":"236 Bishopsgate","address2":null,"address3":null,"city":"London","countryCode":null,"county":"GB","latitude":51.51887,"longitude":-0.079113,"postalCode":null,"region":"Greater London"},"offersCount":0,"openNow":-1,"ratingsCount":0,"tradingName":"Pizza Express Restaurants"},{"id":"Google:8645265075","distance":655,"service":"Google","detailsUrl":"http://www.google.com/maps/place?source=uds&q=Pizza&cid=6231613153927572978","advKey":null,"contact":{"blogUrl":null,"email":null,"facebook":null,"fax":null,"foursquare":null,"mobile":null,"phone":"020 7613 5426","twitter":null,"websiteUrl":null},"displayName":null,"photoUrl":null,"thumbUrl":null,"isSponsored":false,"isUserGenerated":false,"isVerified":false,"location":{"fullAddress":"49-51 Curtain Rd, London, North London EC2A 3PT, United Kingdom","address1":"49-51 Curtain Rd","address2":null,"address3":null,"city":"London","countryCode":null,"county":"GB","latitude":51.524016,"longitude":-0.080528,"postalCode":null,"region":"North London"},"offersCount":0,"openNow":-1,"ratingsCount":0,"tradingName":"Pizza Express"},{"id":"Google:7501933312","distance":961,"service":"Google","detailsUrl":"http://www.google.com/maps/place?source=uds&q=Pizza&cid=14778010744045219376","advKey":null,"contact":{"blogUrl":null,"email":null,"facebook":null,"fax":null,"foursquare":null,"mobile":null,"phone":"020 7336 7758","twitter":null,"websiteUrl":null},"displayName":null,"photoUrl":null,"thumbUrl":null,"isSponsored":false,"isUserGenerated":false,"isVerified":false,"location":{"fullAddress":"140 Tabernacle Street, London EC2A 4SD, United Kingdom","address1":"140 Tabernacle Street","address2":null,"address3":null,"city":"London","countryCode":null,"county":"GB","latitude":51.525777,"longitude":-0.084078,"postalCode":null,"region":null},"offersCount":0,"openNow":-1,"ratingsCount":0,"tradingName":"Yard"},{"id":"7971","distance":1315,"service":"NearMe","detailsUrl":null,"advKey":"d8cc1f976f3f4625985a69b815bf89fd","contact":{"blogUrl":null,"email":null,"facebook":null,"fax":null,"foursquare":null,"mobile":null,"phone":"0207 998 0909","twitter":null,"websiteUrl":"http://www.pizzahut.co.uk"},"displayName":"hut_7971","photoUrl":"http://www.getnearme.com/data/merchants/2012/04/pizzahutuk/hut_7971/d6kGSahkgo_640x480.png","thumbUrl":"http://www.getnearme.com/data/merchants/2012/04/pizzahutuk/hut_7971/d6kGSahkgo_72x54.png","isSponsored":false,"isUserGenerated":false,"isVerified":false,"location":{"fullAddress":"249 Cambridge Heath Road, Bethnal Green, E2 6FG London, United Kingdom","address1":"249 Cambridge Heath Road, Bethnal Green","address2":null,"address3":null,"city":"London","countryCode":"GB","county":null,"latitude":51.526294,"longitude":-0.05424,"postalCode":"E2 6FG","region":"GB"},"offersCount":0,"openNow":-1,"ratingsCount":0,"tradingName":"Pizza Hut Delivery"},{"id":"7822","distance":2936,"service":"NearMe","detailsUrl":null,"advKey":"d8cc1f976f3f4625985a69b815bf89fd","contact":{"blogUrl":null,"email":null,"facebook":null,"fax":null,"foursquare":null,"mobile":null,"phone":"020 8986 6886","twitter":null,"websiteUrl":"http://www.pizzahut.co.uk"},"displayName":"hut_7822","photoUrl":"http://www.getnearme.com/data/merchants/2012/04/pizzahutuk/hut_7822/uFL0A7KElr_640x480.png","thumbUrl":"http://www.getnearme.com/data/merchants/2012/04/pizzahutuk/hut_7822/uFL0A7KElr_72x54.png","isSponsored":false,"isUserGenerated":false,"isVerified":false,"location":{"fullAddress":"321 Mare Street, Hackney, E8 1EJ London, United Kingdom","address1":"321 Mare Street, Hackney","address2":null,"address3":null,"city":"London","countryCode":"GB","county":null,"latitude":51.54566,"longitude":-0.053818,"postalCode":"E8 1EJ","region":"GB"},"offersCount":0,"openNow":-1,"ratingsCount":0,"tradingName":"Pizza Hut Delivery"},{"id":"7593","distance":2965,"service":"NearMe","detailsUrl":null,"advKey":"d8cc1f976f3f4625985a69b815bf89fd","contact":{"blogUrl":null,"email":null,"facebook":null,"fax":null,"foursquare":null,"mobile":null,"phone":"020 7354 5055","twitter":null,"websiteUrl":"http://www.pizzahut.co.uk"},"displayName":"hut_7593","photoUrl":"http://www.getnearme.com/data/merchants/2012/04/pizzahutuk/hut_7593/78pwBnK0nV_640x480.png","thumbUrl":"http://www.getnearme.com/data/merchants/2012/04/pizzahutuk/hut_7593/78pwBnK0nV_72x54.png","isSponsored":false,"isUserGenerated":false,"isVerified":false,"location":{"fullAddress":"169 Upper Street, Islington, N1 1RG London, United Kingdom","address1":"169 Upper Street, Islington","address2":null,"address3":null,"city":"London","countryCode":"GB","county":null,"latitude":51.540911,"longitude":-0.101572,"postalCode":"N1 1RG","region":"GB"},"offersCount":0,"openNow":-1,"ratingsCount":0,"tradingName":"Pizza Hut Delivery"},{"id":"7519","distance":3460,"service":"NearMe","detailsUrl":null,"advKey":"d8cc1f976f3f4625985a69b815bf89fd","contact":{"blogUrl":null,"email":null,"facebook":null,"fax":null,"foursquare":null,"mobile":null,"phone":"020 7837 3934","twitter":null,"websiteUrl":"http://www.pizzahut.co.uk"},"displayName":"hut_7519","photoUrl":"http://www.getnearme.com/data/merchants/2012/04/pizzahutuk/hut_7519/n6xyfB3ZTa_640x480.png","thumbUrl":"http://www.getnearme.com/data/merchants/2012/04/pizzahutuk/hut_7519/n6xyfB3ZTa_72x54.png","isSponsored":false,"isUserGenerated":false,"isVerified":false,"location":{"fullAddress":"150 Southampton Row, WC1B 5AL London, United Kingdom","address1":"150 Southampton Row","address2":null,"address3":null,"city":"London","countryCode":"GB","county":null,"latitude":51.520983,"longitude":-0.121791,"postalCode":"WC1B 5AL","region":"GB"},"offersCount":0,"openNow":-1,"ratingsCount":0,"tradingName":"Pizza Hut"},{"id":"7492","distance":3571,"service":"NearMe","detailsUrl":null,"advKey":"d8cc1f976f3f4625985a69b815bf89fd","contact":{"blogUrl":null,"email":null,"facebook":null,"fax":null,"foursquare":null,"mobile":null,"phone":"020 7231 1414","twitter":null,"websiteUrl":"http://www.pizzahut.co.uk"},"displayName":"hut_7492","photoUrl":"http://www.getnearme.com/data/merchants/2012/04/pizzahutuk/hut_7492/ZVisZruTSn_640x480.png","thumbUrl":"http://www.getnearme.com/data/merchants/2012/04/pizzahutuk/hut_7492/ZVisZruTSn_72x54.png","isSponsored":false,"isUserGenerated":false,"isVerified":false,"location":{"fullAddress":"The Mast Leisure Complex, 5 Teredo St, SE16 7LW London, United Kingdom","address1":"The Mast Leisure Complex, 5 Teredo St","address2":null,"address3":null,"city":"London","countryCode":"GB","county":null,"latitude":51.495434,"longitude":-0.042155,"postalCode":"SE16 7LW","region":"GB"},"offersCount":0,"openNow":-1,"ratingsCount":0,"tradingName":"Pizza Hut"},{"id":"7457","distance":3638,"service":"NearMe","detailsUrl":null,"advKey":"d8cc1f976f3f4625985a69b815bf89fd","contact":{"blogUrl":null,"email":null,"facebook":null,"fax":null,"foursquare":null,"mobile":null,"phone":"020 7497 0909","twitter":null,"websiteUrl":"http://www.pizzahut.co.uk"},"displayName":"hut_7457","photoUrl":"http://www.getnearme.com/data/merchants/2012/04/pizzahutuk/hut_7457/QxAiaklaU5_640x480.png","thumbUrl":"http://www.getnearme.com/data/merchants/2012/04/pizzahutuk/hut_7457/QxAiaklaU5_72x54.png","isSponsored":false,"isUserGenerated":false,"isVerified":false,"location":{"fullAddress":"1A Henrietta Street, Covent Garden, WC2E 8PP London, United Kingdom","address1":"1A Henrietta Street, Covent Garden","address2":null,"address3":null,"city":"London","countryCode":"GB","county":null,"latitude":51.510841,"longitude":-0.121372,"postalCode":"WC2E 8PP","region":"GB"},"offersCount":0,"openNow":-1,"ratingsCount":0,"tradingName":"Pizza Hut"},{"id":"7400","distance":3714,"service":"NearMe","detailsUrl":null,"advKey":"d8cc1f976f3f4625985a69b815bf89fd","contact":{"blogUrl":null,"email":null,"facebook":null,"fax":null,"foursquare":null,"mobile":null,"phone":"020 7925 0050","twitter":null,"websiteUrl":"http://www.pizzahut.co.uk"},"displayName":"hut_7400","photoUrl":"http://www.getnearme.com/data/merchants/2012/04/pizzahutuk/hut_7400/wVGlDCxG8D_640x480.png","thumbUrl":"http://www.getnearme.com/data/merchants/2012/04/pizzahutuk/hut_7400/wVGlDCxG8D_72x54.png","isSponsored":false,"isUserGenerated":false,"isVerified":false,"location":{"fullAddress":"56/59 Strand, WC2N 5LR London, United Kingdom","address1":"56/59 Strand","address2":null,"address3":null,"city":"London","countryCode":"GB","county":null,"latitude":51.509143,"longitude":-0.121514,"postalCode":"WC2N 5LR","region":"GB"},"offersCount":0,"openNow":-1,"ratingsCount":0,"tradingName":"Pizza Hut"},{"id":"7401","distance":3962,"service":"NearMe","detailsUrl":null,"advKey":"d8cc1f976f3f4625985a69b815bf89fd","contact":{"blogUrl":null,"email":null,"facebook":null,"fax":null,"foursquare":null,"mobile":null,"phone":"020 7379 4655","twitter":null,"websiteUrl":"http://www.pizzahut.co.uk"},"displayName":"hut_7401","photoUrl":"http://www.getnearme.com/data/merchants/2012/04/pizzahutuk/hut_7401/bQzBPJ4PQj_640x480.png","thumbUrl":"http://www.getnearme.com/data/merchants/2012/04/pizzahutuk/hut_7401/bQzBPJ4PQj_72x54.png","isSponsored":false,"isUserGenerated":false,"isVerified":false,"location":{"fullAddress":"Gloucester Mansions, 140a Shaftesbury Avenue, WC2H 8PA London, United Kingdom","address1":"Gloucester Mansions, 140a Shaftesbury Avenue","address2":null,"address3":null,"city":"London","countryCode":"GB","county":null,"latitude":51.512787,"longitude":-0.127216,"postalCode":"WC2H 8PA","region":"GB"},"offersCount":0,"openNow":-1,"ratingsCount":0,"tradingName":"Pizza Hut"},{"id":"7386","distance":4075,"service":"NearMe","detailsUrl":null,"advKey":"d8cc1f976f3f4625985a69b815bf89fd","contact":{"blogUrl":null,"email":null,"facebook":null,"fax":null,"foursquare":null,"mobile":null,"phone":"020 7930 9114","twitter":null,"websiteUrl":"http://www.pizzahut.co.uk"},"displayName":"hut_7386","photoUrl":"http://www.getnearme.com/data/merchants/2012/04/pizzahutuk/hut_7386/7ptqAyoepT_640x480.png","thumbUrl":"http://www.getnearme.com/data/merchants/2012/04/pizzahutuk/hut_7386/7ptqAyoepT_72x54.png","isSponsored":false,"isUserGenerated":false,"isVerified":false,"location":{"fullAddress":"19 Leicester Square, WC2H 7LE London, United Kingdom","address1":"19 Leicester Square","address2":null,"address3":null,"city":"London","countryCode":"GB","county":null,"latitude":51.510232,"longitude":-0.12771,"postalCode":"WC2H 7LE","region":"GB"},"offersCount":0,"openNow":-1,"ratingsCount":0,"tradingName":"Pizza Hut"},{"id":"7399","distance":4235,"service":"NearMe","detailsUrl":null,"advKey":"d8cc1f976f3f4625985a69b815bf89fd","contact":{"blogUrl":null,"email":null,"facebook":null,"fax":null,"foursquare":null,"mobile":null,"phone":"020 7734 4534","twitter":null,"websiteUrl":"http://www.pizzahut.co.uk"},"displayName":"hut_7399","photoUrl":"http://www.getnearme.com/data/merchants/2012/04/pizzahutuk/hut_7399/TAZkXeYWdM_640x480.png","thumbUrl":"http://www.getnearme.com/data/merchants/2012/04/pizzahutuk/hut_7399/TAZkXeYWdM_72x54.png","isSponsored":false,"isUserGenerated":false,"isVerified":false,"location":{"fullAddress":"79/89 Oxford Street, W1D 2ET London, United Kingdom","address1":"79/89 Oxford Street","address2":null,"address3":null,"city":"London","countryCode":"GB","county":null,"latitude":51.515375,"longitude":-0.132141,"postalCode":"W1D 2ET","region":"GB"},"offersCount":0,"openNow":-1,"ratingsCount":0,"tradingName":"Pizza Hut"}],"count":18}}