{"meta":{"code":200},"response":{"venues":[{"id":"8730","distance":1200,"service":"NearMe","detailsUrl":null,"advKey":null,"contact":{"blogUrl":null,"email":"talktous@phones4u.co.uk","facebook":null,"fax":null,"foursquare":null,"mobile":null,"phone":"020 7496 3511","twitter":null,"websiteUrl":"http://www.phones4u.co.uk/stores/england/barbican-443"},"displayName":"p4u_8730","photoUrl":"http://www.getnearme.com/data/merchants/2012/04/phones4u/p4u_8730/RomcCQj4Uo_640x480.png","thumbUrl":"http://www.getnearme.com/data/merchants/2012/04/phones4u/p4u_8730/RomcCQj4Uo_72x54.png","isSponsored":false,"isUserGenerated":false,"isVerified":false,"location":{"fullAddress":"14-20 Chiswell Street, London, EC1Y 4TY Barbican, United Kingdom","address1":"14-20 Chiswell Street, London","address2":null,"address3":null,"city":"Barbican","countryCode":"GB","county":"Greater London","latitude":51.520875,"longitude":-0.089088,"postalCode":"EC1Y 4TY","region":null},"offersCount":0,"openNow":-1,"ratingsCount":0,"tradingName":"Phones 4u"},{"id":"8729","distance":2070,"service":"NearMe","detailsUrl":null,"advKey":null,"contact":{"blogUrl":null,"email":"talktous@phones4u.co.uk","facebook":null,"fax":null,"foursquare":null,"mobile":null,"phone":"020 7709 8991","twitter":null,"websiteUrl":"http://www.phones4u.co.uk/stores/england/mile-end-37"},"displayName":"p4u_8729","photoUrl":"http://www.getnearme.com/data/merchants/2012/04/phones4u/p4u_8729/Dpl7czWIYQ_640x480.png","thumbUrl":"http://www.getnearme.com/data/merchants/2012/04/phones4u/p4u_8729/Dpl7czWIYQ_72x54.png","isSponsored":false,"isUserGenerated":false,"isVerified":false,"location":{"fullAddress":"Anchor House Retail Park, Mile End Rd, E1 4UJ Mile End, United Kingdom","address1":"Anchor House Retail Park, Mile End Rd","address2":null,"address3":null,"city":"Mile End","countryCode":"GB","county":"Greater London","latitude":51.522489,"longitude":-0.041885,"postalCode":"E1 4UJ","region":null},"offersCount":0,"openNow":-1,"ratingsCount":0,"tradingName":"Phones 4u"},{"id":"8717","distance":2855,"service":"NearMe","detailsUrl":null,"advKey":null,"contact":{"blogUrl":null,"email":"talktous@phones4u.co.uk","facebook":null,"fax":null,"foursquare":null,"mobile":null,"phone":"020 7254 9619","twitter":null,"websiteUrl":"http://www.phones4u.co.uk/stores/england/dalston-585"},"displayName":"p4u_8717","photoUrl":"http://www.getnearme.com/data/merchants/2012/04/phones4u/p4u_8717/XiESrI9W13_640x480.png","thumbUrl":"http://www.getnearme.com/data/merchants/2012/04/phones4u/p4u_8717/XiESrI9W13_72x54.png","isSponsored":false,"isUserGenerated":false,"isVerified":false,"location":{"fullAddress":"66 Kingsland Street, E8 2JP Dalston, United Kingdom","address1":"66 Kingsland Street","address2":null,"address3":null,"city":"Dalston","countryCode":"GB","county":"London","latitude":51.547321,"longitude":-0.075274,"postalCode":"E8 2JP","region":null},"offersCount":0,"openNow":-1,"ratingsCount":0,"tradingName":"Phones 4u"},{"id":"8716","distance":3183,"service":"NearMe","detailsUrl":null,"advKey":null,"contact":{"blogUrl":null,"email":"talktous@phones4u.co.uk","facebook":null,"fax":null,"foursquare":null,"mobile":null,"phone":"020 8525 8007","twitter":null,"websiteUrl":"http://www.phones4u.co.uk/stores/england/hackney-462"},"displayName":"p4u_8716","photoUrl":"http://www.getnearme.com/data/merchants/2012/04/phones4u/p4u_8716/mekSSdHtN7_640x480.png","thumbUrl":"http://www.getnearme.com/data/merchants/2012/04/phones4u/p4u_8716/mekSSdHtN7_72x54.png","isSponsored":false,"isUserGenerated":false,"isVerified":false,"location":{"fullAddress":"397-399 Mare Street, E8 1HY Hackney, United Kingdom","address1":"397-399 Mare Street","address2":null,"address3":null,"city":"Hackney","countryCode":"GB","county":"Greater London","latitude":51.548476,"longitude":-0.05535,"postalCode":"E8 1HY","region":null},"offersCount":0,"openNow":-1,"ratingsCount":0,"tradingName":"Phones 4u"},{"id":"8750","distance":3591,"service":"NearMe","detailsUrl":null,"advKey":null,"contact":{"blogUrl":null,"email":"talktous@phones4u.co.uk","facebook":null,"fax":null,"foursquare":null,"mobile":null,"phone":"020 7064 8591","twitter":null,"websiteUrl":"http://www.phones4u.co.uk/stores/england/surrey-quays-546"},"displayName":"p4u_8750","photoUrl":"http://www.getnearme.com/data/merchants/2012/04/phones4u/p4u_8750/U2lvSY8bW1_640x480.png","thumbUrl":"http://www.getnearme.com/data/merchants/2012/04/phones4u/p4u_8750/U2lvSY8bW1_72x54.png","isSponsored":false,"isUserGenerated":false,"isVerified":false,"location":{"fullAddress":"Unit 5, Surrey Quays Shopping Centre, SE16 7LJ Surrey Quays, United Kingdom","address1":"Unit 5, Surrey Quays Shopping Centre","address2":null,"address3":null,"city":"Surrey Quays","countryCode":"GB","county":"Cornwall","latitude":51.493195,"longitude":-0.047492,"postalCode":"SE16 7LJ","region":null},"offersCount":0,"openNow":-1,"ratingsCount":0,"tradingName":"Phones 4u"},{"id":"8740","distance":3709,"service":"NearMe","detailsUrl":null,"advKey":null,"contact":{"blogUrl":null,"email":"talktous@phones4u.co.uk","facebook":null,"fax":null,"foursquare":null,"mobile":null,"phone":"020 7379 5950","twitter":null,"websiteUrl":"http://www.phones4u.co.uk/stores/england/london-464"},"displayName":"p4u_8740","photoUrl":"http://www.getnearme.com/data/merchants/2012/04/phones4u/p4u_8740/h0nwxbDKAT_640x480.png","thumbUrl":"http://www.getnearme.com/data/merchants/2012/04/phones4u/p4u_8740/h0nwxbDKAT_72x54.png","isSponsored":false,"isUserGenerated":false,"isVerified":false,"location":{"fullAddress":"81-79b The Strand, WC2R 0DE London, United Kingdom","address1":"81-79b The Strand","address2":null,"address3":null,"city":"London","countryCode":"GB","county":"City of London","latitude":51.510114,"longitude":-0.122035,"postalCode":"WC2R 0DE","region":null},"offersCount":0,"openNow":-1,"ratingsCount":0,"tradingName":"Phones 4u"},{"id":"8731","distance":4123,"service":"NearMe","detailsUrl":null,"advKey":null,"contact":{"blogUrl":null,"email":"talktous@phones4u.co.uk","facebook":null,"fax":null,"foursquare":null,"mobile":null,"phone":"020 7291 8810","twitter":null,"websiteUrl":"http://www.phones4u.co.uk/stores/england/london-316"},"displayName":"p4u_8731","photoUrl":"http://www.getnearme.com/data/merchants/2012/04/phones4u/p4u_8731/t1IifDKXil_640x480.png","thumbUrl":"http://www.getnearme.com/data/merchants/2012/04/phones4u/p4u_8731/t1IifDKXil_72x54.png","isSponsored":false,"isUserGenerated":false,"isVerified":false,"location":{"fullAddress":"4-5 Tottenham Court Road, W1T 1BD London, United Kingdom","address1":"4-5 Tottenham Court Road","address2":null,"address3":null,"city":"London","countryCode":"GB","county":"City of London","latitude":51.516995,"longitude":-0.130899,"postalCode":"W1T 1BD","region":null},"offersCount":0,"openNow":-1,"ratingsCount":0,"tradingName":"Phones 4u"},{"id":"8756","distance":4138,"service":"NearMe","detailsUrl":null,"advKey":null,"contact":{"blogUrl":null,"email":"talktous@phones4u.co.uk","facebook":null,"fax":null,"foursquare":null,"mobile":null,"phone":"020 7703 0260","twitter":null,"websiteUrl":"http://www.phones4u.co.uk/stores/england/london-126"},"displayName":"p4u_8756","photoUrl":"http://www.getnearme.com/data/merchants/2012/04/phones4u/p4u_8756/uTRPcIOdFw_640x480.png","thumbUrl":"http://www.getnearme.com/data/merchants/2012/04/phones4u/p4u_8756/uTRPcIOdFw_72x54.png","isSponsored":false,"isUserGenerated":false,"isVerified":false,"location":{"fullAddress":"287 Walworth Road, SE17 2TG London, United Kingdom","address1":"287 Walworth Road","address2":null,"address3":null,"city":"London","countryCode":"GB","county":"City of London","latitude":51.487482,"longitude":-0.095158,"postalCode":"SE17 2TG","region":null},"offersCount":0,"openNow":-1,"ratingsCount":0,"tradingName":"Phones 4u"},{"id":"8911","distance":4266,"service":"NearMe","detailsUrl":null,"advKey":null,"contact":{"blogUrl":null,"email":"talktous@phones4u.co.uk","facebook":null,"fax":null,"foursquare":null,"mobile":null,"phone":"02072 325950","twitter":null,"websiteUrl":"http://www.phones4u.co.uk/stores/england/southwark-662"},"displayName":"p4u_8911","photoUrl":"http://www.getnearme.com/data/merchants/2012/04/phones4u/p4u_8911/MEzT3t8ILj_640x480.png","thumbUrl":"http://www.getnearme.com/data/merchants/2012/04/phones4u/p4u_8911/MEzT3t8ILj_72x54.png","isSponsored":false,"isUserGenerated":false,"isVerified":false,"location":{"fullAddress":"585-589 Old Kent Road, Southwark, London, SE15 1LA Southwark, United Kingdom","address1":"585-589 Old Kent Road, Southwark, London","address2":null,"address3":null,"city":"Southwark","countryCode":"GB","county":"Greater London","latitude":51.483614,"longitude":-0.064808,"postalCode":"SE15 1LA","region":null},"offersCount":0,"openNow":-1,"ratingsCount":0,"tradingName":"Phones 4u"},{"id":"8732","distance":4461,"service":"NearMe","detailsUrl":null,"advKey":null,"contact":{"blogUrl":null,"email":"talktous@phones4u.co.uk","facebook":null,"fax":null,"foursquare":null,"mobile":null,"phone":"020 7631 5359","twitter":null,"websiteUrl":"http://www.phones4u.co.uk/stores/england/london-392"},"displayName":"p4u_8732","photoUrl":"http://www.getnearme.com/data/merchants/2012/04/phones4u/p4u_8732/rXg3XJzpIx_640x480.png","thumbUrl":"http://www.getnearme.com/data/merchants/2012/04/phones4u/p4u_8732/rXg3XJzpIx_72x54.png","isSponsored":false,"isUserGenerated":false,"isVerified":false,"location":{"fullAddress":"112-114 Oxford Street, W1D 1LS London, United Kingdom","address1":"112-114 Oxford Street","address2":null,"address3":null,"city":"London","countryCode":"GB","county":"City of London","latitude":51.516138,"longitude":-0.135639,"postalCode":"W1D 1LS","region":null},"offersCount":0,"openNow":-1,"ratingsCount":0,"tradingName":"Phones 4u"}],"count":10}}