{"meta":{"code":200},"response":{"venues":[{"id":"9929","distance":1003,"service":"NearMe","detailsUrl":null,"advKey":"269f3a010d6e4da2a8c480e81874180a","contact":{"blogUrl":null,"email":null,"facebook":null,"fax":null,"foursquare":null,"mobile":null,"phone":"0207 7392328","twitter":null,"websiteUrl":"http://www.greggs.co.uk"},"displayName":"greggs_9929","photoUrl":"http://www.getnearme.com/data/merchants/2012/04/greggs/greggs_9929/kPCDAqyTs8_640x480.png","thumbUrl":"http://www.getnearme.com/data/merchants/2012/04/greggs/greggs_9929/kPCDAqyTs8_72x54.png","isSponsored":false,"isUserGenerated":false,"isVerified":false,"location":{"fullAddress":"416 Bethnal Green Road, E2 0DJ Bethnal Green, United Kingdom","address1":"416 Bethnal Green Road","address2":null,"address3":null,"city":"Bethnal Green","countryCode":"GB","county":"Grtr London","latitude":51.5267785,"longitude":-0.0597634,"postalCode":"E2 0DJ","region":null},"offersCount":0,"openNow":-1,"ratingsCount":0,"tradingName":"Greggs"},{"id":"10359","distance":1515,"service":"NearMe","detailsUrl":null,"advKey":"269f3a010d6e4da2a8c480e81874180a","contact":{"blogUrl":null,"email":null,"facebook":null,"fax":null,"foursquare":null,"mobile":null,"phone":"0207 6262940","twitter":null,"websiteUrl":"http://www.greggs.co.uk"},"displayName":"greggs_10359","photoUrl":"http://www.getnearme.com/data/merchants/2012/04/greggs/greggs_10359/y2rdeXsopn_640x480.png","thumbUrl":"http://www.getnearme.com/data/merchants/2012/04/greggs/greggs_10359/y2rdeXsopn_72x54.png","isSponsored":false,"isUserGenerated":false,"isVerified":false,"location":{"fullAddress":"13-21 Eastcheap, EC3M 1BU London, United Kingdom","address1":"13-21 Eastcheap","address2":null,"address3":null,"city":"London","countryCode":"GB","county":null,"latitude":51.5108021,"longitude":-0.0848732,"postalCode":"EC3M 1BU","region":null},"offersCount":0,"openNow":-1,"ratingsCount":0,"tradingName":"Greggs"},{"id":"11050","distance":1775,"service":"NearMe","detailsUrl":null,"advKey":"269f3a010d6e4da2a8c480e81874180a","contact":{"blogUrl":null,"email":null,"facebook":null,"fax":null,"foursquare":null,"mobile":null,"phone":"2072362052","twitter":null,"websiteUrl":"http://www.greggs.co.uk"},"displayName":"greggs_11050","photoUrl":"http://www.getnearme.com/data/merchants/2012/04/greggs/greggs_11050/c41ZfULXcg_640x480.png","thumbUrl":"http://www.getnearme.com/data/merchants/2012/04/greggs/greggs_11050/c41ZfULXcg_72x54.png","isSponsored":false,"isUserGenerated":false,"isVerified":false,"location":{"fullAddress":"Unit 3 Bow Bells House, EC2V 6AT Central London, United Kingdom","address1":"Unit 3 Bow Bells House","address2":null,"address3":null,"city":"Central London","countryCode":"GB","county":null,"latitude":51.513944,"longitude":-0.0941924,"postalCode":"EC2V 6AT","region":null},"offersCount":0,"openNow":-1,"ratingsCount":0,"tradingName":"Greggs"},{"id":"9967","distance":1834,"service":"NearMe","detailsUrl":null,"advKey":"269f3a010d6e4da2a8c480e81874180a","contact":{"blogUrl":null,"email":null,"facebook":null,"fax":null,"foursquare":null,"mobile":null,"phone":"0208 9801624","twitter":null,"websiteUrl":"http://www.greggs.co.uk"},"displayName":"greggs_9967","photoUrl":"http://www.getnearme.com/data/merchants/2012/04/greggs/greggs_9967/Y6M7aB0MpU_640x480.png","thumbUrl":"http://www.getnearme.com/data/merchants/2012/04/greggs/greggs_9967/Y6M7aB0MpU_72x54.png","isSponsored":false,"isUserGenerated":false,"isVerified":false,"location":{"fullAddress":"112 Roman Road, E2 0RN London, United Kingdom","address1":"112 Roman Road","address2":null,"address3":null,"city":"London","countryCode":"GB","county":null,"latitude":51.5285374,"longitude":-0.0476216,"postalCode":"E2 0RN","region":null},"offersCount":0,"openNow":-1,"ratingsCount":0,"tradingName":"Greggs"},{"id":"10188","distance":2664,"service":"NearMe","detailsUrl":null,"advKey":"269f3a010d6e4da2a8c480e81874180a","contact":{"blogUrl":null,"email":null,"facebook":null,"fax":null,"foursquare":null,"mobile":null,"phone":"0207 4302395","twitter":null,"websiteUrl":"http://www.greggs.co.uk"},"displayName":"greggs_10188","photoUrl":"http://www.getnearme.com/data/merchants/2012/04/greggs/greggs_10188/DEXrwOcDzu_640x480.png","thumbUrl":"http://www.getnearme.com/data/merchants/2012/04/greggs/greggs_10188/DEXrwOcDzu_72x54.png","isSponsored":false,"isUserGenerated":false,"isVerified":false,"location":{"fullAddress":"81/81(a) Leather Lane, EC1N 7TS Gtr London, United Kingdom","address1":"81/81(a) Leather Lane","address2":null,"address3":null,"city":"Gtr London","countryCode":"GB","county":null,"latitude":51.5213987,"longitude":-0.1102995,"postalCode":"EC1N 7TS","region":null},"offersCount":0,"openNow":-1,"ratingsCount":0,"tradingName":"Greggs"},{"id":"10066","distance":2953,"service":"NearMe","detailsUrl":null,"advKey":"269f3a010d6e4da2a8c480e81874180a","contact":{"blogUrl":null,"email":null,"facebook":null,"fax":null,"foursquare":null,"mobile":null,"phone":"0207 4033010","twitter":null,"websiteUrl":"http://www.greggs.co.uk"},"displayName":"greggs_10066","photoUrl":"http://www.getnearme.com/data/merchants/2012/04/greggs/greggs_10066/bheQQVxiO9_640x480.png","thumbUrl":"http://www.getnearme.com/data/merchants/2012/04/greggs/greggs_10066/bheQQVxiO9_72x54.png","isSponsored":false,"isUserGenerated":false,"isVerified":false,"location":{"fullAddress":"79 Tower Bridge Road, SE1 4TW London, United Kingdom","address1":"79 Tower Bridge Road","address2":null,"address3":null,"city":"London","countryCode":"GB","county":null,"latitude":51.4960965,"longitude":-0.0829446,"postalCode":"SE1 4TW","region":null},"offersCount":0,"openNow":-1,"ratingsCount":0,"tradingName":"Greggs"},{"id":"9937","distance":2968,"service":"NearMe","detailsUrl":null,"advKey":"269f3a010d6e4da2a8c480e81874180a","contact":{"blogUrl":null,"email":null,"facebook":null,"fax":null,"foursquare":null,"mobile":null,"phone":"0207 2757722","twitter":null,"websiteUrl":"http://www.greggs.co.uk"},"displayName":"greggs_9937","photoUrl":"http://www.getnearme.com/data/merchants/2012/04/greggs/greggs_9937/bJ2TpYabGB_640x480.png","thumbUrl":"http://www.getnearme.com/data/merchants/2012/04/greggs/greggs_9937/bJ2TpYabGB_72x54.png","isSponsored":false,"isUserGenerated":false,"isVerified":false,"location":{"fullAddress":"61 Kingsland High Street, E8 2JS London, United Kingdom","address1":"61 Kingsland High Street","address2":null,"address3":null,"city":"London","countryCode":"GB","county":null,"latitude":51.5483259,"longitude":-0.0755707,"postalCode":"E8 2JS","region":null},"offersCount":0,"openNow":-1,"ratingsCount":0,"tradingName":"Greggs"},{"id":"9955","distance":3204,"service":"NearMe","detailsUrl":null,"advKey":"269f3a010d6e4da2a8c480e81874180a","contact":{"blogUrl":null,"email":null,"facebook":null,"fax":null,"foursquare":null,"mobile":null,"phone":"0208 5330473","twitter":null,"websiteUrl":"http://www.greggs.co.uk"},"displayName":"greggs_9955","photoUrl":"http://www.getnearme.com/data/merchants/2012/04/greggs/greggs_9955/u7HaWepkJn_640x480.png","thumbUrl":"http://www.getnearme.com/data/merchants/2012/04/greggs/greggs_9955/u7HaWepkJn_72x54.png","isSponsored":false,"isUserGenerated":false,"isVerified":false,"location":{"fullAddress":"387b Mare Street, E8 1HY London, United Kingdom","address1":"387b Mare Street","address2":null,"address3":null,"city":"London","countryCode":"GB","county":null,"latitude":51.5486299,"longitude":-0.0551461,"postalCode":"E8 1HY","region":null},"offersCount":0,"openNow":-1,"ratingsCount":0,"tradingName":"Greggs"},{"id":"9870","distance":3391,"service":"NearMe","detailsUrl":null,"advKey":"269f3a010d6e4da2a8c480e81874180a","contact":{"blogUrl":null,"email":null,"facebook":null,"fax":null,"foursquare":null,"mobile":null,"phone":"0208 9817896","twitter":null,"websiteUrl":"http://www.greggs.co.uk"},"displayName":"greggs_9870","photoUrl":"http://www.getnearme.com/data/merchants/2012/04/greggs/greggs_9870/xEEc6xbg6Z_640x480.png","thumbUrl":"http://www.getnearme.com/data/merchants/2012/04/greggs/greggs_9870/xEEc6xbg6Z_72x54.png","isSponsored":false,"isUserGenerated":false,"isVerified":false,"location":{"fullAddress":"628 Roman Road, E3  2RW London, United Kingdom","address1":"628 Roman Road","address2":null,"address3":null,"city":"London","countryCode":"GB","county":null,"latitude":51.5340401,"longitude":-0.0269226,"postalCode":"E3  2RW","region":null},"offersCount":0,"openNow":-1,"ratingsCount":0,"tradingName":"Greggs"},{"id":"10504","distance":3501,"service":"NearMe","detailsUrl":null,"advKey":"269f3a010d6e4da2a8c480e81874180a","contact":{"blogUrl":null,"email":null,"facebook":null,"fax":null,"foursquare":null,"mobile":null,"phone":"0207 2405396","twitter":null,"websiteUrl":"http://www.greggs.co.uk"},"displayName":"greggs_10504","photoUrl":"http://www.getnearme.com/data/merchants/2012/04/greggs/greggs_10504/XUcxmBGJQW_640x480.png","thumbUrl":"http://www.getnearme.com/data/merchants/2012/04/greggs/greggs_10504/XUcxmBGJQW_72x54.png","isSponsored":false,"isUserGenerated":false,"isVerified":false,"location":{"fullAddress":"143 The Strand, WC2R 1JA London, United Kingdom","address1":"143 The Strand","address2":null,"address3":null,"city":"London","countryCode":"GB","county":null,"latitude":51.5111605,"longitude":-0.1194493,"postalCode":"WC2R 1JA","region":null},"offersCount":0,"openNow":-1,"ratingsCount":0,"tradingName":"Greggs"}],"count":10}}