{"meta":{"code":200},"response":{"venues":[{"id":"3331","distance":1283,"service":"NearMe","detailsUrl":null,"advKey":null,"contact":{"blogUrl":null,"email":null,"facebook":null,"fax":null,"foursquare":null,"mobile":null,"phone":"0207 623 7770","twitter":null,"websiteUrl":"http://www.frenchconnection.com/"},"displayName":"fc_3331","photoUrl":"http://www.getnearme.com/data/merchants/2012/04/frenchconnection/fc_3331/IQUkQM7LkF_640x480.png","thumbUrl":"http://www.getnearme.com/data/merchants/2012/04/frenchconnection/fc_3331/IQUkQM7LkF_72x54.png","isSponsored":false,"isUserGenerated":false,"isVerified":false,"location":{"fullAddress":"66-67 Cornhill, EC3V 3RB London, United Kingdom","address1":"66-67 Cornhill","address2":null,"address3":null,"city":"London","countryCode":"GB","county":null,"latitude":51.513502,"longitude":-0.084793,"postalCode":"EC3V 3RB","region":"GB"},"offersCount":0,"openNow":-1,"ratingsCount":0,"tradingName":"French Connection"},{"id":"3351","distance":2791,"service":"NearMe","detailsUrl":null,"advKey":null,"contact":{"blogUrl":null,"email":null,"facebook":null,"fax":null,"foursquare":null,"mobile":null,"phone":"0207 288 0308","twitter":null,"websiteUrl":"http://www.frenchconnection.com/"},"displayName":"fc_3351","photoUrl":"http://www.getnearme.com/data/merchants/2012/04/frenchconnection/fc_3351/m5JqKrpsKs_640x480.png","thumbUrl":"http://www.getnearme.com/data/merchants/2012/04/frenchconnection/fc_3351/m5JqKrpsKs_72x54.png","isSponsored":false,"isUserGenerated":false,"isVerified":false,"location":{"fullAddress":"2 Parkfield Street, N1 0PS London, United Kingdom","address1":"2 Parkfield Street","address2":null,"address3":null,"city":"London","countryCode":"GB","county":null,"latitude":51.534477,"longitude":-0.106559,"postalCode":"N1 0PS","region":"GB"},"offersCount":0,"openNow":-1,"ratingsCount":0,"tradingName":"French Connection"},{"id":"3319","distance":3610,"service":"NearMe","detailsUrl":null,"advKey":null,"contact":{"blogUrl":null,"email":null,"facebook":null,"fax":null,"foursquare":null,"mobile":null,"phone":"0207 833 2208","twitter":null,"websiteUrl":"http://www.frenchconnection.com/"},"displayName":"fc_3319","photoUrl":"http://www.getnearme.com/data/merchants/2012/04/frenchconnection/fc_3319/X7eRTblwBw_640x480.png","thumbUrl":"http://www.getnearme.com/data/merchants/2012/04/frenchconnection/fc_3319/X7eRTblwBw_72x54.png","isSponsored":false,"isUserGenerated":false,"isVerified":false,"location":{"fullAddress":"Brunswick Centre, Bloomsbury, WC1N 1AY London, United Kingdom","address1":"Brunswick Centre, Bloomsbury","address2":null,"address3":null,"city":"London","countryCode":"GB","county":null,"latitude":51.524185,"longitude":-0.123827,"postalCode":"WC1N 1AY","region":"GB"},"offersCount":0,"openNow":-1,"ratingsCount":0,"tradingName":"French Connection"},{"id":"3360","distance":3724,"service":"NearMe","detailsUrl":null,"advKey":null,"contact":{"blogUrl":null,"email":null,"facebook":null,"fax":null,"foursquare":null,"mobile":null,"phone":"0207 379 6560","twitter":null,"websiteUrl":"http://www.frenchconnection.com/"},"displayName":"fc_3360","photoUrl":"http://www.getnearme.com/data/merchants/2012/04/frenchconnection/fc_3360/RrtdIah8ax_640x480.png","thumbUrl":"http://www.getnearme.com/data/merchants/2012/04/frenchconnection/fc_3360/RrtdIah8ax_72x54.png","isSponsored":false,"isUserGenerated":false,"isVerified":false,"location":{"fullAddress":"99-103 Long Acre, WC2E 9NR Covent Garden, United Kingdom","address1":"99-103 Long Acre","address2":null,"address3":null,"city":"Covent Garden","countryCode":"GB","county":null,"latitude":51.513467,"longitude":-0.12395,"postalCode":"WC2E 9NR","region":"GB"},"offersCount":0,"openNow":-1,"ratingsCount":0,"tradingName":"French Connection"},{"id":"3323","distance":4076,"service":"NearMe","detailsUrl":null,"advKey":null,"contact":{"blogUrl":null,"email":null,"facebook":null,"fax":null,"foursquare":null,"mobile":null,"phone":"0207 512 9110","twitter":null,"websiteUrl":"http://www.frenchconnection.com/"},"displayName":"fc_3323","photoUrl":"http://www.getnearme.com/data/merchants/2012/04/frenchconnection/fc_3323/LMZRWNgtnE_640x480.png","thumbUrl":"http://www.getnearme.com/data/merchants/2012/04/frenchconnection/fc_3323/LMZRWNgtnE_72x54.png","isSponsored":false,"isUserGenerated":false,"isVerified":false,"location":{"fullAddress":"18 Jubliee Place, Canary Wharf, , E14 5NY London, United Kingdom","address1":"18 Jubliee Place, Canary Wharf, ","address2":null,"address3":null,"city":"London","countryCode":"GB","county":null,"latitude":51.504923,"longitude":-0.019441,"postalCode":"E14 5NY","region":"GB"},"offersCount":0,"openNow":-1,"ratingsCount":0,"tradingName":"French Connection"},{"id":"3304","distance":4833,"service":"NearMe","detailsUrl":null,"advKey":null,"contact":{"blogUrl":null,"email":null,"facebook":null,"fax":null,"foursquare":null,"mobile":null,"phone":"0207 287 2046","twitter":null,"websiteUrl":"http://www.frenchconnection.com/"},"displayName":"fc_3304","photoUrl":"http://www.getnearme.com/data/merchants/2012/04/frenchconnection/fc_3304/VYu6gdUpzN_640x480.png","thumbUrl":"http://www.getnearme.com/data/merchants/2012/04/frenchconnection/fc_3304/VYu6gdUpzN_72x54.png","isSponsored":false,"isUserGenerated":false,"isVerified":false,"location":{"fullAddress":"10 Argyll Street, W1F 7TQ London, United Kingdom","address1":"10 Argyll Street","address2":null,"address3":null,"city":"London","countryCode":"GB","county":null,"latitude":51.514905,"longitude":-0.140773,"postalCode":"W1F 7TQ","region":"GB"},"offersCount":0,"openNow":-1,"ratingsCount":0,"tradingName":"French Connection"},{"id":"3386","distance":4926,"service":"NearMe","detailsUrl":null,"advKey":null,"contact":{"blogUrl":null,"email":null,"facebook":null,"fax":null,"foursquare":null,"mobile":null,"phone":"0207 493 3124","twitter":null,"websiteUrl":"http://www.frenchconnection.com/"},"displayName":"fc_3386","photoUrl":"http://www.getnearme.com/data/merchants/2012/04/frenchconnection/fc_3386/9EJXCxXDQa_640x480.png","thumbUrl":"http://www.getnearme.com/data/merchants/2012/04/frenchconnection/fc_3386/9EJXCxXDQa_72x54.png","isSponsored":false,"isUserGenerated":false,"isVerified":false,"location":{"fullAddress":"49-251 Regent Street, W1B 2EP London, United Kingdom","address1":"49-251 Regent Street","address2":null,"address3":null,"city":"London","countryCode":"GB","county":null,"latitude":51.51491,"longitude":-0.142141,"postalCode":"W1B 2EP","region":"GB"},"offersCount":0,"openNow":-1,"ratingsCount":0,"tradingName":"French Connection"},{"id":"3379","distance":5210,"service":"NearMe","detailsUrl":null,"advKey":null,"contact":{"blogUrl":null,"email":null,"facebook":null,"fax":null,"foursquare":null,"mobile":null,"phone":"0844 800 3752","twitter":null,"websiteUrl":"http://www.frenchconnection.com/"},"displayName":"fc_3379","photoUrl":"http://www.getnearme.com/data/merchants/2012/04/frenchconnection/fc_3379/6OqAIPy3be_640x480.png","thumbUrl":"http://www.getnearme.com/data/merchants/2012/04/frenchconnection/fc_3379/6OqAIPy3be_72x54.png","isSponsored":false,"isUserGenerated":false,"isVerified":false,"location":{"fullAddress":"318 Oxford Street, W1C 1HF London, United Kingdom","address1":"318 Oxford Street","address2":null,"address3":null,"city":"London","countryCode":"GB","county":null,"latitude":51.514815,"longitude":-0.146266,"postalCode":"W1C 1HF","region":"GB"},"offersCount":0,"openNow":-1,"ratingsCount":0,"tradingName":"French Connection"},{"id":"3398","distance":5262,"service":"NearMe","detailsUrl":null,"advKey":null,"contact":{"blogUrl":null,"email":null,"facebook":null,"fax":null,"foursquare":null,"mobile":null,"phone":"0207 798 2300","twitter":null,"websiteUrl":"http://www.frenchconnection.com/"},"displayName":"fc_3398","photoUrl":"http://www.getnearme.com/data/merchants/2012/04/frenchconnection/fc_3398/up6HNyOlpH_640x480.png","thumbUrl":"http://www.getnearme.com/data/merchants/2012/04/frenchconnection/fc_3398/up6HNyOlpH_72x54.png","isSponsored":false,"isUserGenerated":false,"isVerified":false,"location":{"fullAddress":"House Of Fraser, 101 Victoria Street, SW1E 6QX London, United Kingdom","address1":"House Of Fraser, 101 Victoria Street","address2":null,"address3":null,"city":"London","countryCode":"GB","county":null,"latitude":51.497242,"longitude":-0.136846,"postalCode":"SW1E 6QX","region":"GB"},"offersCount":0,"openNow":-1,"ratingsCount":0,"tradingName":"French Connection"},{"id":"3419","distance":5262,"service":"NearMe","detailsUrl":null,"advKey":null,"contact":{"blogUrl":null,"email":null,"facebook":null,"fax":null,"foursquare":null,"mobile":null,"phone":"0207 798 2300","twitter":null,"websiteUrl":"http://www.frenchconnection.com/"},"displayName":"fc_3419","photoUrl":"http://www.getnearme.com/data/merchants/2012/04/frenchconnection/fc_3419/9K80uOjNQF_640x480.png","thumbUrl":"http://www.getnearme.com/data/merchants/2012/04/frenchconnection/fc_3419/9K80uOjNQF_72x54.png","isSponsored":false,"isUserGenerated":false,"isVerified":false,"location":{"fullAddress":"101 Victoria Street, SW1E 6QX London, United Kingdom","address1":"101 Victoria Street","address2":null,"address3":null,"city":"London","countryCode":"GB","county":null,"latitude":51.497242,"longitude":-0.136846,"postalCode":"SW1E 6QX","region":"GB"},"offersCount":0,"openNow":-1,"ratingsCount":0,"tradingName":"French Connection"}],"count":10}}