{"meta":{"code":200},"response":{"venues":[{"id":"5026","distance":213,"service":"NearMe","detailsUrl":null,"advKey":null,"contact":{"blogUrl":null,"email":null,"facebook":null,"fax":null,"foursquare":null,"mobile":null,"phone":"0207 377 1809","twitter":null,"websiteUrl":"http://www.tesco.com"},"displayName":"tesco_5026","photoUrl":"http://www.getnearme.com/data/merchants/2012/04/tesco/tesco_5026/v7mKhiPAlS_640x480.png","thumbUrl":"http://www.getnearme.com/data/merchants/2012/04/tesco/tesco_5026/v7mKhiPAlS_72x54.png","isSponsored":false,"isUserGenerated":false,"isVerified":false,"location":{"fullAddress":"116-118 Commercial St, E1 6NF London, United Kingdom","address1":"116-118 Commercial St","address2":null,"address3":null,"city":"London","countryCode":"GB","county":null,"latitude":51.520734,"longitude":-0.074421,"postalCode":"E1 6NF","region":"GB"},"offersCount":0,"openNow":-1,"ratingsCount":0,"tradingName":"Tesco Express"},{"id":"5523","distance":504,"service":"NearMe","detailsUrl":null,"advKey":null,"contact":{"blogUrl":null,"email":null,"facebook":null,"fax":null,"foursquare":null,"mobile":null,"phone":"0207 6134731","twitter":null,"websiteUrl":"http://www.tesco.com"},"displayName":"tesco_5523","photoUrl":"http://www.getnearme.com/data/merchants/2012/04/tesco/tesco_5523/XmlU9dN7PM_640x480.png","thumbUrl":"http://www.getnearme.com/data/merchants/2012/04/tesco/tesco_5523/XmlU9dN7PM_72x54.png","isSponsored":false,"isUserGenerated":false,"isVerified":false,"location":{"fullAddress":"179 Shoreditch High S, E1 6HP Shorditch, United Kingdom","address1":"179 Shoreditch High S","address2":null,"address3":null,"city":"Shorditch","countryCode":"GB","county":null,"latitude":51.524675,"longitude":-0.077346,"postalCode":"E1 6HP","region":"GB"},"offersCount":0,"openNow":-1,"ratingsCount":0,"tradingName":"Tesco Express"},{"id":"5101","distance":577,"service":"NearMe","detailsUrl":null,"advKey":null,"contact":{"blogUrl":null,"email":null,"facebook":null,"fax":null,"foursquare":null,"mobile":null,"phone":"0207 2474323","twitter":null,"websiteUrl":"http://www.tesco.com"},"displayName":"tesco_5101","photoUrl":"http://www.getnearme.com/data/merchants/2012/04/tesco/tesco_5101/yKFojIduPm_640x480.png","thumbUrl":"http://www.getnearme.com/data/merchants/2012/04/tesco/tesco_5101/yKFojIduPm_72x54.png","isSponsored":false,"isUserGenerated":false,"isVerified":false,"location":{"fullAddress":"Black Lion House, E1 1DU Whitechapel, United Kingdom","address1":"Black Lion House","address2":null,"address3":null,"city":"Whitechapel","countryCode":"GB","county":null,"latitude":51.516993,"longitude":-0.068381,"postalCode":"E1 1DU","region":"GB"},"offersCount":0,"openNow":-1,"ratingsCount":0,"tradingName":"Tesco Express"},{"id":"6892","distance":658,"service":"NearMe","detailsUrl":null,"advKey":null,"contact":{"blogUrl":null,"email":null,"facebook":null,"fax":null,"foursquare":null,"mobile":null,"phone":null,"twitter":null,"websiteUrl":"http://www.tesco.com"},"displayName":"tesco_6892","photoUrl":"http://www.getnearme.com/data/merchants/2012/04/tesco/tesco_6892/vlQcWn9KTU_640x480.png","thumbUrl":"http://www.getnearme.com/data/merchants/2012/04/tesco/tesco_6892/vlQcWn9KTU_72x54.png","isSponsored":false,"isUserGenerated":false,"isVerified":false,"location":{"fullAddress":"4 Fieldgate Street, E1 1ES Whitechapel, United Kingdom","address1":"4 Fieldgate Street","address2":null,"address3":null,"city":"Whitechapel","countryCode":"GB","county":null,"latitude":51.517044,"longitude":-0.065983,"postalCode":"E1 1ES","region":"GB"},"offersCount":0,"openNow":-1,"ratingsCount":0,"tradingName":"Tesco Metro"},{"id":"6083","distance":746,"service":"NearMe","detailsUrl":null,"advKey":null,"contact":{"blogUrl":null,"email":null,"facebook":null,"fax":null,"foursquare":null,"mobile":null,"phone":null,"twitter":null,"websiteUrl":"http://www.tesco.com"},"displayName":"tesco_6083","photoUrl":"http://www.getnearme.com/data/merchants/2012/04/tesco/tesco_6083/qdl8ev2T2T_640x480.png","thumbUrl":"http://www.getnearme.com/data/merchants/2012/04/tesco/tesco_6083/qdl8ev2T2T_72x54.png","isSponsored":false,"isUserGenerated":false,"isVerified":false,"location":{"fullAddress":"271-275 Bethnal Gre, E2 6AH Bethnal Green, United Kingdom","address1":"271-275 Bethnal Gre","address2":null,"address3":null,"city":"Bethnal Green","countryCode":"GB","county":null,"latitude":51.527408,"longitude":-0.066018,"postalCode":"E2 6AH","region":"GB"},"offersCount":0,"openNow":-1,"ratingsCount":0,"tradingName":"Tesco Express"},{"id":"4499","distance":831,"service":"NearMe","detailsUrl":null,"advKey":null,"contact":{"blogUrl":null,"email":null,"facebook":null,"fax":null,"foursquare":null,"mobile":null,"phone":"0845 6779052","twitter":null,"websiteUrl":"http://www.tesco.com"},"displayName":"tesco_4499","photoUrl":"http://www.getnearme.com/data/merchants/2012/04/tesco/tesco_4499/t0jRoKY9mD_640x480.png","thumbUrl":"http://www.getnearme.com/data/merchants/2012/04/tesco/tesco_4499/t0jRoKY9mD_72x54.png","isSponsored":false,"isUserGenerated":false,"isVerified":false,"location":{"fullAddress":"158-164 Bishopsgate, EC2M 4LN London, United Kingdom","address1":"158-164 Bishopsgate","address2":null,"address3":null,"city":"London","countryCode":"GB","county":null,"latitude":51.516939,"longitude":-0.081013,"postalCode":"EC2M 4LN","region":"GB"},"offersCount":0,"openNow":-1,"ratingsCount":0,"tradingName":"Tesco Metro"},{"id":"6010","distance":884,"service":"NearMe","detailsUrl":null,"advKey":null,"contact":{"blogUrl":null,"email":null,"facebook":null,"fax":null,"foursquare":null,"mobile":null,"phone":null,"twitter":null,"websiteUrl":"http://www.tesco.com"},"displayName":"tesco_6010","photoUrl":"http://www.getnearme.com/data/merchants/2012/04/tesco/tesco_6010/1KEXaNzRbT_640x480.png","thumbUrl":"http://www.getnearme.com/data/merchants/2012/04/tesco/tesco_6010/1KEXaNzRbT_72x54.png","isSponsored":false,"isUserGenerated":false,"isVerified":false,"location":{"fullAddress":"79-85 Hackney Road, E2 7QU Hackney, United Kingdom","address1":"79-85 Hackney Road","address2":null,"address3":null,"city":"Hackney","countryCode":"GB","county":null,"latitude":51.529374,"longitude":-0.075368,"postalCode":"E2 7QU","region":"GB"},"offersCount":0,"openNow":-1,"ratingsCount":0,"tradingName":"Tesco Express"},{"id":"6071","distance":1012,"service":"NearMe","detailsUrl":null,"advKey":null,"contact":{"blogUrl":null,"email":null,"facebook":null,"fax":null,"foursquare":null,"mobile":null,"phone":null,"twitter":null,"websiteUrl":"http://www.tesco.com"},"displayName":"tesco_6071","photoUrl":"http://www.getnearme.com/data/merchants/2012/04/tesco/tesco_6071/SZTj6qNMl0_640x480.png","thumbUrl":"http://www.getnearme.com/data/merchants/2012/04/tesco/tesco_6071/SZTj6qNMl0_72x54.png","isSponsored":false,"isUserGenerated":false,"isVerified":false,"location":{"fullAddress":"142, EC3A 7DH Aldgate, United Kingdom","address1":"142","address2":null,"address3":null,"city":"Aldgate","countryCode":"GB","county":null,"latitude":51.513316,"longitude":-0.07738,"postalCode":"EC3A 7DH","region":"GB"},"offersCount":0,"openNow":-1,"ratingsCount":0,"tradingName":"Tesco Express"},{"id":"6818","distance":1030,"service":"NearMe","detailsUrl":null,"advKey":null,"contact":{"blogUrl":null,"email":null,"facebook":null,"fax":null,"foursquare":null,"mobile":null,"phone":"0845 6779048","twitter":null,"websiteUrl":"http://www.tesco.com"},"displayName":"tesco_6818","photoUrl":"http://www.getnearme.com/data/merchants/2012/04/tesco/tesco_6818/6tCO5DsWv4_640x480.png","thumbUrl":"http://www.getnearme.com/data/merchants/2012/04/tesco/tesco_6818/6tCO5DsWv4_72x54.png","isSponsored":false,"isUserGenerated":false,"isVerified":false,"location":{"fullAddress":"361 Bethnal Green Rd, E2 0AN Bethnal Green, United Kingdom","address1":"361 Bethnal Green Rd","address2":null,"address3":null,"city":"Bethnal Green","countryCode":"GB","county":null,"latitude":51.527164,"longitude":-0.059718,"postalCode":"E2 0AN","region":"GB"},"offersCount":0,"openNow":-1,"ratingsCount":0,"tradingName":"Tesco Metro"},{"id":"5767","distance":1067,"service":"NearMe","detailsUrl":null,"advKey":null,"contact":{"blogUrl":null,"email":null,"facebook":null,"fax":null,"foursquare":null,"mobile":null,"phone":"2076386616","twitter":null,"websiteUrl":"http://www.tesco.com"},"displayName":"tesco_5767","photoUrl":"http://www.getnearme.com/data/merchants/2012/04/tesco/tesco_5767/kvaTQItTqo_640x480.png","thumbUrl":"http://www.getnearme.com/data/merchants/2012/04/tesco/tesco_5767/kvaTQItTqo_72x54.png","isSponsored":false,"isUserGenerated":false,"isVerified":false,"location":{"fullAddress":"1-23 City Road, EC2A 4DE London, United Kingdom","address1":"1-23 City Road","address2":null,"address3":null,"city":"London","countryCode":"GB","county":null,"latitude":51.522376,"longitude":-0.087176,"postalCode":"EC2A 4DE","region":"GB"},"offersCount":0,"openNow":-1,"ratingsCount":0,"tradingName":"Tesco Express"}],"count":10}}