{"meta":{"code":200},"response":{"venues":[{"id":"0521522126","distance":641,"service":"NearMe","detailsUrl":null,"advKey":"dc59f46d03214f77ad08dee301b34d2b","contact":{"blogUrl":null,"email":"info@snappysnaps-bishopsgate.co.uk","facebook":"http://www.facebook.com/snappysnaps","fax":null,"foursquare":null,"mobile":null,"phone":"020 7377 5752","twitter":"http://twitter.com/SnappySnapsUK","websiteUrl":"http://www.snappysnaps-bishopsgate.co.uk"},"displayName":"SnappySnaps_70","photoUrl":"http://www.getnearme.com/data/merchants/2012/05/snappysnaps/snappysnaps_70/NesxBAiqVV_640x480.png","thumbUrl":"http://www.getnearme.com/data/merchants/2012/05/snappysnaps/snappysnaps_70/NesxBAiqVV_72x54.png","isSponsored":false,"isUserGenerated":false,"isVerified":false,"location":{"fullAddress":"220 Bishopsgate, EC2M 4QD London, United Kingdom","address1":"220 Bishopsgate","address2":null,"address3":null,"city":"London","countryCode":"GB","county":"London","latitude":51.5184505,"longitude":-0.0794067,"postalCode":"EC2M 4QD","region":null},"offersCount":0,"openNow":-1,"ratingsCount":0,"tradingName":"Snappy Snaps"},{"id":"2615093401","distance":911,"service":"NearMe","detailsUrl":null,"advKey":"dc59f46d03214f77ad08dee301b34d2b","contact":{"blogUrl":null,"email":"info@snappysnaps-aldgate.co.uk","facebook":"http://www.facebook.com/snappysnaps","fax":null,"foursquare":null,"mobile":null,"phone":"020 7702 4477","twitter":"http://twitter.com/SnappySnapsUK","websiteUrl":"http://www.snappysnaps-aldgate.co.uk"},"displayName":"SnappySnaps_69","photoUrl":"http://www.getnearme.com/data/merchants/2012/05/snappysnaps/snappysnaps_69/32jy4N0gS7_640x480.png","thumbUrl":"http://www.getnearme.com/data/merchants/2012/05/snappysnaps/snappysnaps_69/32jy4N0gS7_72x54.png","isSponsored":false,"isUserGenerated":false,"isVerified":false,"location":{"fullAddress":"86 Aldgate High Street, EC3N 1LH Aldgate, United Kingdom","address1":"86 Aldgate High Street","address2":null,"address3":null,"city":"Aldgate","countryCode":"GB","county":"London","latitude":51.5140439,"longitude":-0.0763568,"postalCode":"EC3N 1LH","region":null},"offersCount":0,"openNow":-1,"ratingsCount":0,"tradingName":"Snappy Snaps"},{"id":"9065","distance":1194,"service":"NearMe","detailsUrl":null,"advKey":"81cdc7fcb73247a9907654d5a003c63a","contact":{"blogUrl":null,"email":null,"facebook":null,"fax":null,"foursquare":null,"mobile":null,"phone":"0844561000","twitter":null,"websiteUrl":"http://www.currys.co.uk"},"displayName":"currys_pcworld_9065","photoUrl":"http://www.getnearme.com/data/merchants/2012/04/currys/currys_pcworld_9065/jUTleAuuY9_640x480.png","thumbUrl":"http://www.getnearme.com/data/merchants/2012/04/currys/currys_pcworld_9065/jUTleAuuY9_72x54.png","isSponsored":false,"isUserGenerated":false,"isVerified":false,"location":{"fullAddress":"Longbow House, 14-20 Chiswell Street, EC1Y 4TW London, United Kingdom","address1":"Longbow House, 14-20 Chiswell Street","address2":null,"address3":null,"city":"London","countryCode":"GB","county":null,"latitude":51.5207632,"longitude":-0.0889874,"postalCode":"EC1Y 4TW","region":null},"offersCount":0,"openNow":-1,"ratingsCount":0,"tradingName":"Currys - PC World"},{"id":"9009","distance":1199,"service":"NearMe","detailsUrl":null,"advKey":"81cdc7fcb73247a9907654d5a003c63a","contact":{"blogUrl":null,"email":null,"facebook":null,"fax":null,"foursquare":null,"mobile":null,"phone":"0844561000","twitter":null,"websiteUrl":"http://www.currys.co.uk"},"displayName":"currys_9009","photoUrl":"http://www.getnearme.com/data/merchants/2012/04/currys/currys_9009/eXSRg2wSJq_640x480.png","thumbUrl":"http://www.getnearme.com/data/merchants/2012/04/currys/currys_9009/eXSRg2wSJq_72x54.png","isSponsored":false,"isUserGenerated":false,"isVerified":false,"location":{"fullAddress":"14-17 Old Broad Street, City of London, EC2N 1DW London, United Kingdom","address1":"14-17 Old Broad Street, City of London","address2":null,"address3":null,"city":"London","countryCode":"GB","county":null,"latitude":51.5149485,"longitude":-0.0852618,"postalCode":"EC2N 1DW","region":null},"offersCount":0,"openNow":-1,"ratingsCount":0,"tradingName":"Currys"},{"id":"8922477819","distance":1325,"service":"NearMe","detailsUrl":null,"advKey":"dc59f46d03214f77ad08dee301b34d2b","contact":{"blogUrl":null,"email":"info@snappysnaps-leadenhall.co.uk","facebook":"http://www.facebook.com/snappysnaps","fax":null,"foursquare":null,"mobile":null,"phone":"020 7621 1444","twitter":"http://twitter.com/SnappySnapsUK","websiteUrl":"http://www.snappysnaps-leadenhall.co.uk"},"displayName":"SnappySnaps_71","photoUrl":"http://www.getnearme.com/data/merchants/2012/05/snappysnaps/snappysnaps_71/qYozFVxK0j_640x480.png","thumbUrl":"http://www.getnearme.com/data/merchants/2012/05/snappysnaps/snappysnaps_71/qYozFVxK0j_72x54.png","isSponsored":false,"isUserGenerated":false,"isVerified":false,"location":{"fullAddress":"37 Leadenhall Market, EC3V 1LT London, United Kingdom","address1":"37 Leadenhall Market","address2":null,"address3":null,"city":"London","countryCode":"GB","county":"London","latitude":51.5124437,"longitude":-0.083792,"postalCode":"EC3V 1LT","region":null},"offersCount":0,"openNow":-1,"ratingsCount":0,"tradingName":"Snappy Snaps"},{"id":"9296","distance":1346,"service":"NearMe","detailsUrl":null,"advKey":"81cdc7fcb73247a9907654d5a003c63a","contact":{"blogUrl":null,"email":null,"facebook":null,"fax":null,"foursquare":null,"mobile":null,"phone":"0844561000","twitter":null,"websiteUrl":"http://www.currys.co.uk"},"displayName":"currys_pcworld_9296","photoUrl":"http://www.getnearme.com/data/merchants/2012/04/currys/currys_pcworld_9296/7ikT6031dF_640x480.png","thumbUrl":"http://www.getnearme.com/data/merchants/2012/04/currys/currys_pcworld_9296/7ikT6031dF_72x54.png","isSponsored":false,"isUserGenerated":false,"isVerified":false,"location":{"fullAddress":"Unit 3  Anchor House, 125 Mile End Road, E1 4UJ London, United Kingdom","address1":"Unit 3  Anchor House, 125 Mile End Road","address2":null,"address3":null,"city":"London","countryCode":"GB","county":null,"latitude":51.5096811,"longitude":-0.0699724,"postalCode":"E1 4UJ","region":null},"offersCount":0,"openNow":-1,"ratingsCount":0,"tradingName":"Currys - PC World"},{"id":"1754101086","distance":1795,"service":"NearMe","detailsUrl":null,"advKey":"dc59f46d03214f77ad08dee301b34d2b","contact":{"blogUrl":null,"email":"info@snappysnaps-mansionhouse.co.uk","facebook":"http://www.facebook.com/snappysnaps","fax":null,"foursquare":null,"mobile":null,"phone":"020 7248 0701","twitter":"http://twitter.com/SnappySnapsUK","websiteUrl":"http://www.snappysnaps.co.uk/"},"displayName":"SnappySnaps_72","photoUrl":"http://www.getnearme.com/data/merchants/2012/05/snappysnaps/snappysnaps_72/AFlEpmJJ6q_640x480.png","thumbUrl":"http://www.getnearme.com/data/merchants/2012/05/snappysnaps/snappysnaps_72/AFlEpmJJ6q_72x54.png","isSponsored":false,"isUserGenerated":false,"isVerified":false,"location":{"fullAddress":"53a Queen Victoria Street, EC4N 4SA City/Mansion House, United Kingdom","address1":"53a Queen Victoria Street","address2":null,"address3":null,"city":"City/Mansion House","countryCode":"GB","county":"London","latitude":51.5123953,"longitude":-0.0929599,"postalCode":"EC4N 4SA","region":null},"offersCount":0,"openNow":-1,"ratingsCount":0,"tradingName":"Snappy Snaps"},{"id":"7556776921","distance":2163,"service":"NearMe","detailsUrl":null,"advKey":"dc59f46d03214f77ad08dee301b34d2b","contact":{"blogUrl":null,"email":"info@snappysnaps-farringdon.co.uk","facebook":"http://www.facebook.com/snappysnaps","fax":null,"foursquare":null,"mobile":null,"phone":"020 7490 7555","twitter":"http://twitter.com/SnappySnapsUK","websiteUrl":"http://www.snappysnaps-farringdon.co.uk"},"displayName":"SnappySnaps_81","photoUrl":"http://www.getnearme.com/data/merchants/2012/05/snappysnaps/snappysnaps_81/eSWmmcO2JL_640x480.png","thumbUrl":"http://www.getnearme.com/data/merchants/2012/05/snappysnaps/snappysnaps_81/eSWmmcO2JL_72x54.png","isSponsored":false,"isUserGenerated":false,"isVerified":false,"location":{"fullAddress":"18 Cowcross Street, EC1M 6DU Farringdon, United Kingdom","address1":"18 Cowcross Street","address2":null,"address3":null,"city":"Farringdon","countryCode":"GB","county":"London","latitude":51.52011,"longitude":-0.1029516,"postalCode":"EC1M 6DU","region":null},"offersCount":0,"openNow":-1,"ratingsCount":0,"tradingName":"Snappy Snaps"},{"id":"7467010164","distance":2663,"service":"NearMe","detailsUrl":null,"advKey":"dc59f46d03214f77ad08dee301b34d2b","contact":{"blogUrl":null,"email":"info@snappysnaps-fleetstreet.co.uk","facebook":"http://www.facebook.com/snappysnaps","fax":null,"foursquare":null,"mobile":null,"phone":"020 7353 4610","twitter":"http://twitter.com/SnappySnapsUK","websiteUrl":"http://www.snappysnaps.co.uk/"},"displayName":"SnappySnaps_82","photoUrl":"http://www.getnearme.com/data/merchants/2012/05/snappysnaps/snappysnaps_82/AQM4iJ9WOx_640x480.png","thumbUrl":"http://www.getnearme.com/data/merchants/2012/05/snappysnaps/snappysnaps_82/AQM4iJ9WOx_72x54.png","isSponsored":false,"isUserGenerated":false,"isVerified":false,"location":{"fullAddress":"59 Fleet Street, EC4Y 1JU London, United Kingdom","address1":"59 Fleet Street","address2":null,"address3":null,"city":"London","countryCode":"GB","county":"London","latitude":51.5141357,"longitude":-0.1082879,"postalCode":"EC4Y 1JU","region":null},"offersCount":0,"openNow":-1,"ratingsCount":0,"tradingName":"Snappy Snaps"},{"id":"4736838278","distance":2718,"service":"NearMe","detailsUrl":null,"advKey":"dc59f46d03214f77ad08dee301b34d2b","contact":{"blogUrl":null,"email":"info@snappysnaps-angel.co.uk","facebook":"http://www.facebook.com/snappysnaps","fax":null,"foursquare":null,"mobile":null,"phone":"020 7278 3345","twitter":"http://twitter.com/SnappySnapsUK","websiteUrl":"http://www.snappysnaps-angel.co.uk"},"displayName":"SnappySnaps_90","photoUrl":"http://www.getnearme.com/data/merchants/2012/05/snappysnaps/snappysnaps_90/0htPl8y5rt_640x480.png","thumbUrl":"http://www.getnearme.com/data/merchants/2012/05/snappysnaps/snappysnaps_90/0htPl8y5rt_72x54.png","isSponsored":false,"isUserGenerated":false,"isVerified":false,"location":{"fullAddress":"43 Islington High Street, N1 9LH Angel, United Kingdom","address1":"43 Islington High Street","address2":null,"address3":null,"city":"Angel","countryCode":"GB","county":"London","latitude":51.5330655,"longitude":-0.1066155,"postalCode":"N1 9LH","region":null},"offersCount":0,"openNow":-1,"ratingsCount":0,"tradingName":"Snappy Snaps"},{"id":"Google:9937636551","distance":4638,"service":"Google","detailsUrl":"http://www.google.com/maps/place?source=uds&q=Photograpy+Shops&cid=17419841786972835411","advKey":null,"contact":{"blogUrl":null,"email":null,"facebook":null,"fax":null,"foursquare":null,"mobile":null,"phone":"020 7636 5375","twitter":null,"websiteUrl":null},"displayName":null,"photoUrl":null,"thumbUrl":null,"isSponsored":false,"isUserGenerated":false,"isVerified":false,"location":{"fullAddress":"66-67 Wells Street, London, W1T 3PY, United Kingdom","address1":"66-67 Wells Street","address2":null,"address3":null,"city":"London","countryCode":null,"county":"GB","latitude":51.517509,"longitude":-0.138478,"postalCode":null,"region":null},"offersCount":0,"openNow":-1,"ratingsCount":0,"tradingName":"Diemar Noble Ltd"},{"id":"Google:7115506374","distance":5820,"service":"Google","detailsUrl":"http://www.google.com/maps/place?source=uds&q=Photograpy+Shops&cid=11918563914200677260","advKey":null,"contact":{"blogUrl":null,"email":null,"facebook":null,"fax":null,"foursquare":null,"mobile":null,"phone":"07522 073075","twitter":null,"websiteUrl":null},"displayName":null,"photoUrl":null,"thumbUrl":null,"isSponsored":false,"isUserGenerated":false,"isVerified":false,"location":{"fullAddress":"58 Lowth Rd, London SE5 9EX, United Kingdom","address1":"58 Lowth Rd","address2":null,"address3":null,"city":"London","countryCode":null,"county":"GB","latitude":51.471763,"longitude":-0.096826,"postalCode":null,"region":null},"offersCount":0,"openNow":-1,"ratingsCount":0,"tradingName":"Diflex Events"},{"id":"Google:3798455354","distance":7613,"service":"Google","detailsUrl":"http://www.google.com/maps/place?source=uds&q=Photograpy+Shops&cid=6063911182796526073","advKey":null,"contact":{"blogUrl":null,"email":null,"facebook":null,"fax":null,"foursquare":null,"mobile":null,"phone":"0870 063 0911","twitter":null,"websiteUrl":null},"displayName":null,"photoUrl":null,"thumbUrl":null,"isSponsored":false,"isUserGenerated":false,"isVerified":false,"location":{"fullAddress":"21A Holmesdale Rd, London N6 5TH, United Kingdom","address1":"21A Holmesdale Rd","address2":null,"address3":null,"city":"London","countryCode":null,"county":"GB","latitude":51.574786,"longitude":-0.141385,"postalCode":null,"region":null},"offersCount":0,"openNow":-1,"ratingsCount":0,"tradingName":"Just Kids Photography"},{"id":"Google:4063694588","distance":10063,"service":"Google","detailsUrl":"http://www.google.com/maps/place?source=uds&q=Photograpy+Shops&cid=2715365936532500831","advKey":null,"contact":{"blogUrl":null,"email":null,"facebook":null,"fax":null,"foursquare":null,"mobile":null,"phone":"07803 397740","twitter":null,"websiteUrl":null},"displayName":null,"photoUrl":null,"thumbUrl":null,"isSponsored":false,"isUserGenerated":false,"isVerified":false,"location":{"fullAddress":"228 Wanstead Park Rd, Ilford IG1 3TT, United Kingdom","address1":"228 Wanstead Park Rd","address2":null,"address3":null,"city":"Ilford","countryCode":null,"county":"GB","latitude":51.566843,"longitude":0.054375,"postalCode":null,"region":null},"offersCount":0,"openNow":-1,"ratingsCount":0,"tradingName":"Martin Willis Photography"},{"id":"Google:0147281963","distance":10451,"service":"Google","detailsUrl":"http://www.google.com/maps/place?source=uds&q=Photograpy+Shops&cid=12960390070315246367","advKey":null,"contact":{"blogUrl":null,"email":null,"facebook":null,"fax":null,"foursquare":null,"mobile":null,"phone":"07811 267875","twitter":null,"websiteUrl":null},"displayName":null,"photoUrl":null,"thumbUrl":null,"isSponsored":false,"isUserGenerated":false,"isVerified":false,"location":{"fullAddress":"80A Uxbridge Rd, London, Shepherds Bush W12 8LR, United Kingdom","address1":"80A Uxbridge Rd","address2":null,"address3":null,"city":"Shepherds Bush","countryCode":null,"county":"GB","latitude":51.504517,"longitude":-0.22026,"postalCode":null,"region":null},"offersCount":0,"openNow":-1,"ratingsCount":0,"tradingName":"Pixcellence Ltd"},{"id":"Google:5524309683","distance":15720,"service":"Google","detailsUrl":"http://www.google.com/maps/place?source=uds&q=Photograpy+Shops&cid=18169332439712304907","advKey":null,"contact":{"blogUrl":null,"email":null,"facebook":null,"fax":null,"foursquare":null,"mobile":null,"phone":"07956 082938","twitter":null,"websiteUrl":null},"displayName":null,"photoUrl":null,"thumbUrl":null,"isSponsored":false,"isUserGenerated":false,"isVerified":false,"location":{"fullAddress":"33 Lower Addiscombe Rd, Croydon, London CR0 6PQ, United Kingdom","address1":"33 Lower Addiscombe Rd","address2":null,"address3":null,"city":"London","countryCode":null,"county":"GB","latitude":51.380712,"longitude":-0.087937,"postalCode":null,"region":null},"offersCount":0,"openNow":-1,"ratingsCount":0,"tradingName":"Kunaal Gosrani Photography"},{"id":"Google:5474749123","distance":17794,"service":"Google","detailsUrl":"http://www.google.com/maps/place?source=uds&q=Photograpy+Shops&cid=8999870219059121435","advKey":null,"contact":{"blogUrl":null,"email":null,"facebook":null,"fax":null,"foursquare":null,"mobile":null,"phone":"020 8447 0728","twitter":null,"websiteUrl":null},"displayName":null,"photoUrl":null,"thumbUrl":null,"isSponsored":false,"isUserGenerated":false,"isVerified":false,"location":{"fullAddress":"The Den, 2 Dingle Close, Barnet, Hertfordshire EN5 3EL, United Kingdom","address1":"The Den, 2 Dingle Close","address2":null,"address3":null,"city":"Barnet","countryCode":null,"county":"GB","latitude":51.643483,"longitude":-0.23892,"postalCode":null,"region":"Hertfordshire"},"offersCount":0,"openNow":-1,"ratingsCount":0,"tradingName":"Hayley Lehmann"},{"id":"Google:7741365752","distance":21468,"service":"Google","detailsUrl":"http://www.google.com/maps/place?source=uds&q=Photograpy+Shops&cid=7223835719022033550","advKey":null,"contact":{"blogUrl":null,"email":null,"facebook":null,"fax":null,"foursquare":null,"mobile":null,"phone":"020 8241 7171","twitter":null,"websiteUrl":null},"displayName":null,"photoUrl":null,"thumbUrl":null,"isSponsored":false,"isUserGenerated":false,"isVerified":false,"location":{"fullAddress":"39A Broomfield Rd, Surbiton, Surrey KT5 9AZ, United Kingdom","address1":"39A Broomfield Rd","address2":null,"address3":null,"city":"Surbiton","countryCode":null,"county":"GB","latitude":51.385466,"longitude":-0.291268,"postalCode":null,"region":"Surrey"},"offersCount":0,"openNow":-1,"ratingsCount":0,"tradingName":"Carolina Middleton photography"}],"count":18}}