{
	"meta": {
		"code": "200"
	},
	"response": {
		"venues": [{
			"id": "10000099",
			"distance": "190",
			"service": "NearMe",
			"detailsUrl": null,
			"advKey": "2837626072684d908f4aefe9f336014c",
			"contact": {
				"blogUrl": "null",
				"email": "rich@nudeespresso.com",
				"facebook": "null",
				"fax": "null",
				"foursquare": "null",
				"mobile": "null",
				"phone": "07738 734 019",
				"twitter": "null",
				"websiteUrl": "http://www.nudeespresso.com"
			},
			"displayName": "ukcw_10000099",
			"photoUrl": "http://www.getnearme.com/data/merchants/2012/04/ukcoffeeweek/ukcw_10000099/zhxdfVy8CX_640x480.png",
			"thumbUrl": "http://www.getnearme.com/data/merchants/2012/04/ukcoffeeweek/ukcw_10000099/zhxdfVy8CX_72x54.png",
			"isSponsored": "false",
			"isUserGenerated": "false",
			"isVerified": "false",
			"location": {
				"fullAddress": "26 Hanbury Street, E1 6QR London, United Kingdom",
				"address1": "26 Hanbury Street",
				"address2": "null",
				"address3": "null",
				"city": "London",
				"countryCode": "GB",
				"county": "Greater London",
				"latitude": "51.520226",
				"longitude": "-0.073101",
				"postalCode": "E1 6QR",
				"region": "London (East)"
			},
			"offersCount": "0",
			"openNow": "-1",
			"ratingsCount": "0",
			"tradingName": "Nude Espresso"
		}, {
			"id": "5026",
			"distance": "213",
			"service": "NearMe",
			"detailsUrl": "null",
			"advKey": "null",
			"contact": {
				"blogUrl": "null",
				"email": "null",
				"facebook": "null",
				"fax": "null",
				"foursquare": "null",
				"mobile": "null",
				"phone": "0207 377 1809",
				"twitter": "null",
				"websiteUrl": "http://www.tesco.com"
			},
			"displayName": "tesco_5026",
			"photoUrl": "http://www.getnearme.com/data/merchants/2012/04/tesco/tesco_5026/v7mKhiPAlS_640x480.png",
			"thumbUrl": "http://www.getnearme.com/data/merchants/2012/04/tesco/tesco_5026/v7mKhiPAlS_72x54.png",
			"isSponsored": "false",
			"isUserGenerated": "false",
			"isVerified": "false",
			"location": {
				"fullAddress": "116-118 Commercial St, E1 6NF London, United Kingdom",
				"address1": "116-118 Commercial St",
				"address2": "null",
				"address3": "null",
				"city": "London",
				"countryCode": "GB",
				"county": "null",
				"latitude": "51.520733",
				"longitude": "-0.074421",
				"postalCode": "E1 6NF",
				"region": "GB"
			},
			"offersCount": "0",
			"openNow": "-1",
			"ratingsCount": "0",
			"tradingName": "Tesco Express"
		}, {
			"id": "10000010",
			"distance": "245",
			"service": "NearMe",
			"detailsUrl": "null",
			"advKey": "2837626072684d908f4aefe9f336014c",
			"contact": {
				"blogUrl": "null",
				"email": "adrian@streetcoffee.co.uk",
				"facebook": "null",
				"fax": "null",
				"foursquare": "null",
				"mobile": "null",
				"phone": "020 7729 2667",
				"twitter": "null",
				"websiteUrl": "http://www.streetcoffee.co.uk"
			},
			"displayName": "ukcw_10000010",
			"photoUrl": "http://www.getnearme.com/data/merchants/2012/04/ukcoffeeweek/ukcw_10000010/vltF2e6uVS_640x480.png",
			"thumbUrl": "http://www.getnearme.com/data/merchants/2012/04/ukcoffeeweek/ukcw_10000010/vltF2e6uVS_72x54.png",
			"isSponsored": "false",
			"isUserGenerated": "false",
			"isVerified": "false",
			"location": {
				"fullAddress": "157 Brick Lane, E1 6SB London, United Kingdom",
				"address1": "157 Brick Lane",
				"address2": "null",
				"address3": "null",
				"city": "London",
				"countryCode": "GB",
				"county": "Greater London",
				"latitude": "51.523945",
				"longitude": "-0.07169",
				"postalCode": "E1 6SB",
				"region": "London (East)"
			},
			"offersCount": "0",
			"openNow": "-1",
			"ratingsCount": "0",
			"tradingName": "Brick Lane Coffee"
		}, {
			"id": "10000000",
			"distance": "360",
			"service": "NearMe",
			"detailsUrl": "null",
			"advKey": "2837626072684d908f4aefe9f336014c",
			"contact": {
				"blogUrl": "null",
				"email": "null",
				"facebook": "null",
				"fax": "null",
				"foursquare": "null",
				"mobile": "null",
				"phone": "0207 749 1780",
				"twitter": "null",
				"websiteUrl": "http://www.allpressespresso.com"
			},
			"displayName": "ukcw_10000000",
			"photoUrl": "http://www.getnearme.com/data/merchants/2012/04/ukcoffeeweek/ukcw_10000000/hqWEzdGfJw_640x480.png",
			"thumbUrl": "http://www.getnearme.com/data/merchants/2012/04/ukcoffeeweek/ukcw_10000000/hqWEzdGfJw_72x54.png",
			"isSponsored": "false",
			"isUserGenerated": "false",
			"isVerified": "false",
			"location": {
				"fullAddress": "58 Redchurch Street, E2 7DP Shoreditch, United Kingdom",
				"address1": "58 Redchurch Street",
				"address2": "null",
				"address3": "null",
				"city": "Shoreditch",
				"countryCode": "GB",
				"county": "null",
				"latitude": "51.52445",
				"longitude": "-0.0746459",
				"postalCode": "E2 7DP",
				"region": "London (East)"
			},
			"offersCount": "0",
			"openNow": "-1",
			"ratingsCount": "0",
			"tradingName": "Allpress Espresso"
		}, {
			"id": "20320004",
			"distance": "364",
			"service": "NearMe",
			"detailsUrl": "http://www.getnearme.com/venue/showMobileDetails?publicId=20320004",
			"advKey": "5b2471a41c3c4e8d93ebd1cfdd67bcc3",
			"contact": {
				"blogUrl": "null",
				"email": "null",
				"facebook": "null",
				"fax": "null",
				"foursquare": "null",
				"mobile": "null",
				"phone": "08457 555 555",
				"twitter": "http://twitter.com/BarclaysOnline",
				"websiteUrl": "http://www.barclays.co.uk"
			},
			"displayName": "barclays_20320004",
			"photoUrl": "http://www.getnearme.com/data/merchants/2012/04/barclays/barclays_20320004/zExNIhbZDB_640x480.jpg",
			"thumbUrl": "http://www.getnearme.com/data/merchants/2012/04/barclays/barclays_20320004/zExNIhbZDB_72x54.jpg",
			"isSponsored": "false",
			"isUserGenerated": "false",
			"isVerified": "false",
			"location": {
				"fullAddress": "99 Commercial Street, Spitalfields, E1 6FN London, United Kingdom",
				"address1": "99 Commercial Street",
				"address2": "Spitalfields",
				"address3": "null",
				"city": "London",
				"countryCode": "GB",
				"county": "null",
				"latitude": "51.519024",
				"longitude": "-0.074744",
				"postalCode": "E1 6FN",
				"region": "null"
			},
			"offersCount": "0",
			"openNow": "-1",
			"ratingsCount": "0",
			"tradingName": "Barclays Bank"
		}, {
			"id": "3435",
			"distance": "415",
			"service": "NearMe",
			"detailsUrl": "null",
			"advKey": "null",
			"contact": {
				"blogUrl": "null",
				"email": "null",
				"facebook": "null",
				"fax": "null",
				"foursquare": "null",
				"mobile": "null",
				"phone": "+44 20 3116 2000",
				"twitter": "null",
				"websiteUrl": "http://www.giraffe.net/"
			},
			"displayName": "giraffe_3435",
			"photoUrl": "http://www.getnearme.com/data/merchants/2012/04/giraffe/giraffe_3435/vhc0Ti12hb_640x480.jpg",
			"thumbUrl": "http://www.getnearme.com/data/merchants/2012/04/giraffe/giraffe_3435/vhc0Ti12hb_72x54.jpg",
			"isSponsored": "false",
			"isUserGenerated": "false",
			"isVerified": "false",
			"location": {
				"fullAddress": "Spitalfields, E1 6DW London, United Kingdom",
				"address1": "Spitalfields",
				"address2": "null",
				"address3": "null",
				"city": "London",
				"countryCode": "GB",
				"county": "null",
				"latitude": "51.51973",
				"longitude": "-0.07685",
				"postalCode": "E1 6DW",
				"region": "GB"
			},
			"offersCount": "0",
			"openNow": "-1",
			"ratingsCount": "0",
			"tradingName": "Giraffe"
		}, {
			"id": "5523",
			"distance": "504",
			"service": "NearMe",
			"detailsUrl": "null",
			"advKey": "null",
			"contact": {
				"blogUrl": "null",
				"email": "null",
				"facebook": "null",
				"fax": "null",
				"foursquare": "null",
				"mobile": "null",
				"phone": "0207 6134731",
				"twitter": "null",
				"websiteUrl": "http://www.tesco.com"
			},
			"displayName": "tesco_5523",
			"photoUrl": "http://www.getnearme.com/data/merchants/2012/04/tesco/tesco_5523/XmlU9dN7PM_640x480.png",
			"thumbUrl": "http://www.getnearme.com/data/merchants/2012/04/tesco/tesco_5523/XmlU9dN7PM_72x54.png",
			"isSponsored": "false",
			"isUserGenerated": "false",
			"isVerified": "false",
			"location": {
				"fullAddress": "179 Shoreditch High S, E1 6HP Shorditch, United Kingdom",
				"address1": "179 Shoreditch High S",
				"address2": "null",
				"address3": "null",
				"city": "Shorditch",
				"countryCode": "GB",
				"county": "null",
				"latitude": "51.524673",
				"longitude": "-0.077346",
				"postalCode": "E1 6HP",
				"region": "GB"
			},
			"offersCount": "0",
			"openNow": "-1",
			"ratingsCount": "0",
			"tradingName": "Tesco Express"
		}, {
			"id": "10000138",
			"distance": "573",
			"service": "NearMe",
			"detailsUrl": "null",
			"advKey": "2837626072684d908f4aefe9f336014c",
			"contact": "null",
			"displayName": "ukcw_10000138",
			"photoUrl": "http://www.getnearme.com/data/merchants/2012/04/ukcoffeeweek/ukcw_10000138/UJWqn1Ogsx_640x480.png",
			"thumbUrl": "http://www.getnearme.com/data/merchants/2012/04/ukcoffeeweek/ukcw_10000138/UJWqn1Ogsx_72x54.png",
			"isSponsored": "false",
			"isUserGenerated": "false",
			"isVerified": "false",
			"location": {
				"fullAddress": "25 Sandy's Row, E1 7HW London, United Kingdom",
				"address1": "25 Sandy's Row",
				"address2": "null",
				"address3": "null",
				"city": "London",
				"countryCode": "GB",
				"county": "null",
				"latitude": "51.5182",
				"longitude": "-0.0778137",
				"postalCode": "E1 7HW",
				"region": "London (East)"
			},
			"offersCount": "0",
			"openNow": "-1",
			"ratingsCount": "0",
			"tradingName": "Tinderbox"
		}, {
			"id": "5101",
			"distance": "577",
			"service": "NearMe",
			"detailsUrl": "null",
			"advKey": "null",
			"contact": {
				"blogUrl": "null",
				"email": "null",
				"facebook": "null",
				"fax": "null",
				"foursquare": "null",
				"mobile": "null",
				"phone": "0207 2474323",
				"twitter": "null",
				"websiteUrl": "http://www.tesco.com"
			},
			"displayName": "tesco_5101",
			"photoUrl": "http://www.getnearme.com/data/merchants/2012/04/tesco/tesco_5101/yKFojIduPm_640x480.png",
			"thumbUrl": "http://www.getnearme.com/data/merchants/2012/04/tesco/tesco_5101/yKFojIduPm_72x54.png",
			"isSponsored": "false",
			"isUserGenerated": "false",
			"isVerified": "false",
			"location": {
				"fullAddress": "Black Lion House, E1 1DU Whitechapel, United Kingdom",
				"address1": "Black Lion House",
				"address2": "null",
				"address3": "null",
				"city": "Whitechapel",
				"countryCode": "GB",
				"county": "null",
				"latitude": "51.516994",
				"longitude": "-0.068381",
				"postalCode": "E1 1DU",
				"region": "GB"
			},
			"offersCount": "0",
			"openNow": "-1",
			"ratingsCount": "0",
			"tradingName": "Tesco Express"
		}, {
			"id": "0521522126",
			"distance": "641",
			"service": "NearMe",
			"detailsUrl": "null",
			"advKey": "dc59f46d03214f77ad08dee301b34d2b",
			"contact": {
				"blogUrl": "null",
				"email": "info@snappysnaps-bishopsgate.co.uk",
				"facebook": "http://www.facebook.com/snappysnaps",
				"fax": "null",
				"foursquare": "null",
				"mobile": "null",
				"phone": "020 7377 5752",
				"twitter": "http://twitter.com/SnappySnapsUK",
				"websiteUrl": "http://www.snappysnaps-bishopsgate.co.uk"
			},
			"displayName": "SnappySnaps_70",
			"photoUrl": "http://www.getnearme.com/data/merchants/2012/05/snappysnaps/snappysnaps_70/NesxBAiqVV_640x480.png",
			"thumbUrl": "http://www.getnearme.com/data/merchants/2012/05/snappysnaps/snappysnaps_70/NesxBAiqVV_72x54.png",
			"isSponsored": "false",
			"isUserGenerated": "false",
			"isVerified": "false",
			"location": {
				"fullAddress": "220 Bishopsgate, EC2M 4QD London, United Kingdom",
				"address1": "220 Bishopsgate",
				"address2": "null",
				"address3": "null",
				"city": "London",
				"countryCode": "GB",
				"county": "London",
				"latitude": "51.51845",
				"longitude": "-0.0794067",
				"postalCode": "EC2M 4QD",
				"region": "null"
			},
			"offersCount": "0",
			"openNow": "-1",
			"ratingsCount": "0",
			"tradingName": "Snappy Snaps"
		}],
		"count": "3019"
	}
}