{"meta":{"code":200},"response":{"venues":[{"id":"4391","distance":2171,"service":"NearMe","detailsUrl":null,"advKey":null,"contact":{"blogUrl":null,"email":null,"facebook":null,"fax":null,"foursquare":null,"mobile":null,"phone":"02077 904168","twitter":null,"websiteUrl":"http://www.screwfix.com"},"displayName":"screwfix_4391","photoUrl":"http://www.getnearme.com/data/merchants/2012/04/screwfix/screwfix_4391/Xc25U6wI9R_640x480.jpg","thumbUrl":"http://www.getnearme.com/data/merchants/2012/04/screwfix/screwfix_4391/Xc25U6wI9R_72x54.jpg","isSponsored":false,"isUserGenerated":false,"isVerified":false,"location":{"fullAddress":"Heckford Street, E1W 3HR Limehouse, United Kingdom","address1":"Heckford Street","address2":null,"address3":null,"city":"Limehouse","countryCode":"GB","county":null,"latitude":51.5111626,"longitude":-0.0453958,"postalCode":"E1W 3HR","region":"GB"},"offersCount":0,"openNow":-1,"ratingsCount":0,"tradingName":"Screwfix The Highway"},{"id":"4329","distance":3676,"service":"NearMe","detailsUrl":null,"advKey":null,"contact":{"blogUrl":null,"email":null,"facebook":null,"fax":null,"foursquare":null,"mobile":null,"phone":"02089 817602","twitter":null,"websiteUrl":"http://www.screwfix.com"},"displayName":"screwfix_4329","photoUrl":"http://www.getnearme.com/data/merchants/2012/04/screwfix/screwfix_4329/J7efegAmS5_640x480.jpg","thumbUrl":"http://www.getnearme.com/data/merchants/2012/04/screwfix/screwfix_4329/J7efegAmS5_72x54.jpg","isSponsored":false,"isUserGenerated":false,"isVerified":false,"location":{"fullAddress":"Maverton Road, E3 2JE Bow, United Kingdom","address1":"Maverton Road","address2":null,"address3":null,"city":"Bow","countryCode":"GB","county":null,"latitude":51.534927,"longitude":-0.0230534,"postalCode":"E3 2JE","region":"GB"},"offersCount":0,"openNow":-1,"ratingsCount":0,"tradingName":"Screwfix Bow"},{"id":"4322","distance":3787,"service":"NearMe","detailsUrl":null,"advKey":null,"contact":{"blogUrl":null,"email":null,"facebook":null,"fax":null,"foursquare":null,"mobile":null,"phone":"0207 2317427","twitter":null,"websiteUrl":"http://www.screwfix.com"},"displayName":"screwfix_4322","photoUrl":"http://www.getnearme.com/data/merchants/2012/04/screwfix/screwfix_4322/99INbiMnjl_640x480.jpg","thumbUrl":"http://www.getnearme.com/data/merchants/2012/04/screwfix/screwfix_4322/99INbiMnjl_72x54.jpg","isSponsored":false,"isUserGenerated":false,"isVerified":false,"location":{"fullAddress":"Bermondsey Trading Estate, SE16 3LL Bermondsey, United Kingdom","address1":"Bermondsey Trading Estate","address2":null,"address3":null,"city":"Bermondsey","countryCode":"GB","county":null,"latitude":51.4892672,"longitude":-0.0552344,"postalCode":"SE16 3LL","region":"GB"},"offersCount":0,"openNow":-1,"ratingsCount":0,"tradingName":"Screwfix Bermondsey"},{"id":"4408","distance":6628,"service":"NearMe","detailsUrl":null,"advKey":null,"contact":{"blogUrl":null,"email":null,"facebook":null,"fax":null,"foursquare":null,"mobile":null,"phone":"02085 561679","twitter":null,"websiteUrl":"http://www.screwfix.com"},"displayName":"screwfix_4408","photoUrl":"http://www.getnearme.com/data/merchants/2012/04/screwfix/screwfix_4408/0WsY2dLE2U_640x480.jpg","thumbUrl":"http://www.getnearme.com/data/merchants/2012/04/screwfix/screwfix_4408/0WsY2dLE2U_72x54.jpg","isSponsored":false,"isUserGenerated":false,"isVerified":false,"location":{"fullAddress":"Leabridge road, E10 7NQ Leyton, United Kingdom","address1":"Leabridge road","address2":null,"address3":null,"city":"Leyton","countryCode":"GB","county":null,"latitude":51.5720258,"longitude":-0.0203289,"postalCode":"E10 7NQ","region":"GB"},"offersCount":0,"openNow":-1,"ratingsCount":0,"tradingName":"Screwfix Leyton"},{"id":"4475","distance":6762,"service":"NearMe","detailsUrl":null,"advKey":null,"contact":{"blogUrl":null,"email":null,"facebook":null,"fax":null,"foursquare":null,"mobile":null,"phone":"0208 2169574","twitter":null,"websiteUrl":"http://www.screwfix.com"},"displayName":"screwfix_4475","photoUrl":"http://www.getnearme.com/data/merchants/2012/04/screwfix/screwfix_4475/99xfJjJVeq_640x480.jpg","thumbUrl":"http://www.getnearme.com/data/merchants/2012/04/screwfix/screwfix_4475/99xfJjJVeq_72x54.jpg","isSponsored":false,"isUserGenerated":false,"isVerified":false,"location":{"fullAddress":"Rangemoor Road, N15 4NA Tottenham, United Kingdom","address1":"Rangemoor Road","address2":null,"address3":null,"city":"Tottenham","countryCode":"GB","county":null,"latitude":51.5825342,"longitude":-0.0692661,"postalCode":"N15 4NA","region":"GB"},"offersCount":0,"openNow":-1,"ratingsCount":0,"tradingName":"Screwfix Tottenham"},{"id":"4348","distance":7622,"service":"NearMe","detailsUrl":null,"advKey":null,"contact":{"blogUrl":null,"email":null,"facebook":null,"fax":null,"foursquare":null,"mobile":null,"phone":"02088 589609","twitter":null,"websiteUrl":"http://www.screwfix.com"},"displayName":"screwfix_4348","photoUrl":"http://www.getnearme.com/data/merchants/2012/04/screwfix/screwfix_4348/heGJ6ev4nD_640x480.jpg","thumbUrl":"http://www.getnearme.com/data/merchants/2012/04/screwfix/screwfix_4348/heGJ6ev4nD_72x54.jpg","isSponsored":false,"isUserGenerated":false,"isVerified":false,"location":{"fullAddress":"Unit 4-5 Ramac Way, SE7 7AX Charlton, United Kingdom","address1":"Unit 4-5 Ramac Way","address2":null,"address3":null,"city":"Charlton","countryCode":"GB","county":null,"latitude":51.4876339,"longitude":0.0237462,"postalCode":"SE7 7AX","region":"GB"},"offersCount":0,"openNow":-1,"ratingsCount":0,"tradingName":"Screwfix Charlton"},{"id":"4368","distance":10329,"service":"NearMe","detailsUrl":null,"advKey":null,"contact":{"blogUrl":null,"email":null,"facebook":null,"fax":null,"foursquare":null,"mobile":null,"phone":"0115 938 6506","twitter":null,"websiteUrl":"http://www.screwfix.com"},"displayName":"screwfix_4368","photoUrl":"http://www.getnearme.com/data/merchants/2012/04/screwfix/screwfix_4368/umB0TVhi8B_640x480.jpg","thumbUrl":"http://www.getnearme.com/data/merchants/2012/04/screwfix/screwfix_4368/umB0TVhi8B_72x54.jpg","isSponsored":false,"isUserGenerated":false,"isVerified":false,"location":{"fullAddress":"Advent Way, N18 3AF Edmonton, United Kingdom","address1":"Advent Way","address2":null,"address3":null,"city":"Edmonton","countryCode":"GB","county":null,"latitude":51.6127018,"longitude":-0.0415216,"postalCode":"N18 3AF","region":"GB"},"offersCount":0,"openNow":-1,"ratingsCount":0,"tradingName":"Screwfix Edmonton"},{"id":"4424","distance":10858,"service":"NearMe","detailsUrl":null,"advKey":null,"contact":{"blogUrl":null,"email":null,"facebook":null,"fax":null,"foursquare":null,"mobile":null,"phone":"0500 414141","twitter":null,"websiteUrl":"http://www.screwfix.com"},"displayName":"screwfix_4424","photoUrl":"http://www.getnearme.com/data/merchants/2012/04/screwfix/screwfix_4424/GKjSxQlq52_640x480.jpg","thumbUrl":"http://www.getnearme.com/data/merchants/2012/04/screwfix/screwfix_4424/GKjSxQlq52_72x54.jpg","isSponsored":false,"isUserGenerated":false,"isVerified":false,"location":{"fullAddress":"New Southgate, N11 1JL London, United Kingdom","address1":"New Southgate","address2":null,"address3":null,"city":"London","countryCode":"GB","county":null,"latitude":51.611001,"longitude":-0.135469,"postalCode":"N11 1JL","region":"GB"},"offersCount":0,"openNow":-1,"ratingsCount":0,"tradingName":"Screwfix New Southgate"},{"id":"4472","distance":11156,"service":"NearMe","detailsUrl":null,"advKey":null,"contact":{"blogUrl":null,"email":null,"facebook":null,"fax":null,"foursquare":null,"mobile":null,"phone":"02086 768815","twitter":null,"websiteUrl":"http://www.screwfix.com"},"displayName":"screwfix_4472","photoUrl":"http://www.getnearme.com/data/merchants/2012/04/screwfix/screwfix_4472/yJLXcfX58q_640x480.jpg","thumbUrl":"http://www.getnearme.com/data/merchants/2012/04/screwfix/screwfix_4472/yJLXcfX58q_72x54.jpg","isSponsored":false,"isUserGenerated":false,"isVerified":false,"location":{"fullAddress":"Kangley Bridge Road, SE26 5BA London, United Kingdom","address1":"Kangley Bridge Road","address2":null,"address3":null,"city":"London","countryCode":"GB","county":null,"latitude":51.4241403,"longitude":-0.0344159,"postalCode":"SE26 5BA","region":"GB"},"offersCount":0,"openNow":-1,"ratingsCount":0,"tradingName":"Screwfix Sydenham"},{"id":"4493","distance":11168,"service":"NearMe","detailsUrl":null,"advKey":null,"contact":{"blogUrl":null,"email":null,"facebook":null,"fax":null,"foursquare":null,"mobile":null,"phone":"02085 516579","twitter":null,"websiteUrl":"http://www.screwfix.com"},"displayName":"screwfix_4493","photoUrl":"http://www.getnearme.com/data/merchants/2012/04/screwfix/screwfix_4493/nxI2OmmHzv_640x480.jpg","thumbUrl":"http://www.getnearme.com/data/merchants/2012/04/screwfix/screwfix_4493/nxI2OmmHzv_72x54.jpg","isSponsored":false,"isUserGenerated":false,"isVerified":false,"location":{"fullAddress":"Southend Road, IG8 8HF Woodford Green, United Kingdom","address1":"Southend Road","address2":null,"address3":null,"city":"Woodford Green","countryCode":"GB","county":null,"latitude":51.5923375,"longitude":0.0431178,"postalCode":"IG8 8HF","region":"GB"},"offersCount":0,"openNow":-1,"ratingsCount":0,"tradingName":"Screwfix Woodford Green"}],"count":10}}