{"meta":{"code":200},"response":{"venues":[{"id":"10000099","distance":190,"service":"NearMe","detailsUrl":null,"advKey":"2837626072684d908f4aefe9f336014c","contact":{"blogUrl":null,"email":"rich@nudeespresso.com","facebook":null,"fax":null,"foursquare":null,"mobile":null,"phone":"07738 734 019","twitter":null,"websiteUrl":"http://www.nudeespresso.com"},"displayName":"ukcw_10000099","photoUrl":"http://www.getnearme.com/data/merchants/2012/04/ukcoffeeweek/ukcw_10000099/zhxdfVy8CX_640x480.png","thumbUrl":"http://www.getnearme.com/data/merchants/2012/04/ukcoffeeweek/ukcw_10000099/zhxdfVy8CX_72x54.png","isSponsored":false,"isUserGenerated":false,"isVerified":false,"location":{"fullAddress":"26 Hanbury Street, E1 6QR London, United Kingdom","address1":"26 Hanbury Street","address2":null,"address3":null,"city":"London","countryCode":"GB","county":"Greater London","latitude":51.520227,"longitude":-0.073101,"postalCode":"E1 6QR","region":"London (East)"},"offersCount":0,"openNow":-1,"ratingsCount":0,"tradingName":"Nude Espresso"},{"id":"10000010","distance":245,"service":"NearMe","detailsUrl":null,"advKey":"2837626072684d908f4aefe9f336014c","contact":{"blogUrl":null,"email":"adrian@streetcoffee.co.uk","facebook":null,"fax":null,"foursquare":null,"mobile":null,"phone":"020 7729 2667","twitter":null,"websiteUrl":"http://www.streetcoffee.co.uk"},"displayName":"ukcw_10000010","photoUrl":"http://www.getnearme.com/data/merchants/2012/04/ukcoffeeweek/ukcw_10000010/vltF2e6uVS_640x480.png","thumbUrl":"http://www.getnearme.com/data/merchants/2012/04/ukcoffeeweek/ukcw_10000010/vltF2e6uVS_72x54.png","isSponsored":false,"isUserGenerated":false,"isVerified":false,"location":{"fullAddress":"157 Brick Lane, E1 6SB London, United Kingdom","address1":"157 Brick Lane","address2":null,"address3":null,"city":"London","countryCode":"GB","county":"Greater London","latitude":51.523945,"longitude":-0.07169,"postalCode":"E1 6SB","region":"London (East)"},"offersCount":0,"openNow":-1,"ratingsCount":0,"tradingName":"Brick Lane Coffee"},{"id":"10000000","distance":360,"service":"NearMe","detailsUrl":null,"advKey":"2837626072684d908f4aefe9f336014c","contact":{"blogUrl":null,"email":null,"facebook":null,"fax":null,"foursquare":null,"mobile":null,"phone":"0207 749 1780","twitter":null,"websiteUrl":"http://www.allpressespresso.com"},"displayName":"ukcw_10000000","photoUrl":"http://www.getnearme.com/data/merchants/2012/04/ukcoffeeweek/ukcw_10000000/hqWEzdGfJw_640x480.png","thumbUrl":"http://www.getnearme.com/data/merchants/2012/04/ukcoffeeweek/ukcw_10000000/hqWEzdGfJw_72x54.png","isSponsored":false,"isUserGenerated":false,"isVerified":false,"location":{"fullAddress":"58 Redchurch Street, E2 7DP Shoreditch, United Kingdom","address1":"58 Redchurch Street","address2":null,"address3":null,"city":"Shoreditch","countryCode":"GB","county":null,"latitude":51.5244479,"longitude":-0.0746459,"postalCode":"E2 7DP","region":"London (East)"},"offersCount":0,"openNow":-1,"ratingsCount":0,"tradingName":"Allpress Espresso"},{"id":"10000138","distance":573,"service":"NearMe","detailsUrl":null,"advKey":"2837626072684d908f4aefe9f336014c","contact":null,"displayName":"ukcw_10000138","photoUrl":"http://www.getnearme.com/data/merchants/2012/04/ukcoffeeweek/ukcw_10000138/UJWqn1Ogsx_640x480.png","thumbUrl":"http://www.getnearme.com/data/merchants/2012/04/ukcoffeeweek/ukcw_10000138/UJWqn1Ogsx_72x54.png","isSponsored":false,"isUserGenerated":false,"isVerified":false,"location":{"fullAddress":"25 Sandy's Row, E1 7HW London, United Kingdom","address1":"25 Sandy's Row","address2":null,"address3":null,"city":"London","countryCode":"GB","county":null,"latitude":51.5182,"longitude":-0.0778137,"postalCode":"E1 7HW","region":"London (East)"},"offersCount":0,"openNow":-1,"ratingsCount":0,"tradingName":"Tinderbox"},{"id":"10000131","distance":722,"service":"NearMe","detailsUrl":null,"advKey":"2837626072684d908f4aefe9f336014c","contact":{"blogUrl":null,"email":"info@taylor-st.com","facebook":null,"fax":null,"foursquare":null,"mobile":null,"phone":"020 7929 2207","twitter":null,"websiteUrl":"http://www.taylor-st.com"},"displayName":"ukcw_10000131","photoUrl":"http://www.getnearme.com/data/merchants/2012/04/ukcoffeeweek/ukcw_10000131/IibGjfqf6k_640x480.png","thumbUrl":"http://www.getnearme.com/data/merchants/2012/04/ukcoffeeweek/ukcw_10000131/IibGjfqf6k_72x54.png","isSponsored":false,"isUserGenerated":false,"isVerified":false,"location":{"fullAddress":"1A New Street, EC2M 4TP London, United Kingdom","address1":"1A New Street","address2":null,"address3":null,"city":"London","countryCode":"GB","county":"Greater London","latitude":51.517235,"longitude":-0.07931,"postalCode":"EC2M 4TP","region":"London (City Centre)"},"offersCount":0,"openNow":-1,"ratingsCount":0,"tradingName":"Taylor St Baristas "},{"id":"10000030","distance":747,"service":"NearMe","detailsUrl":null,"advKey":"2837626072684d908f4aefe9f336014c","contact":{"blogUrl":null,"email":null,"facebook":null,"fax":null,"foursquare":null,"mobile":null,"phone":"020 7033 9555","twitter":null,"websiteUrl":"http://www.fix-coffee.co.uk"},"displayName":"ukcw_10000030","photoUrl":"http://www.getnearme.com/data/merchants/2012/04/ukcoffeeweek/ukcw_10000030/XtTD5qNJpA_640x480.png","thumbUrl":"http://www.getnearme.com/data/merchants/2012/04/ukcoffeeweek/ukcw_10000030/XtTD5qNJpA_72x54.png","isSponsored":false,"isUserGenerated":false,"isVerified":false,"location":{"fullAddress":"126 Curtain Road, EC2A 3PJ Shoreditch, United Kingdom","address1":"126 Curtain Road","address2":null,"address3":null,"city":"Shoreditch","countryCode":"GB","county":null,"latitude":51.5260076,"longitude":-0.0801375,"postalCode":"EC2A 3PJ","region":"London (East)"},"offersCount":0,"openNow":-1,"ratingsCount":0,"tradingName":"Fix Coffee"},{"id":"10000124","distance":766,"service":"NearMe","detailsUrl":null,"advKey":"2837626072684d908f4aefe9f336014c","contact":{"blogUrl":null,"email":"info@taylor-st.com","facebook":null,"fax":null,"foursquare":null,"mobile":null,"phone":"07748 805 106","twitter":null,"websiteUrl":"http://www.taylor-st.com"},"displayName":"ukcw_10000124","photoUrl":"http://www.getnearme.com/data/merchants/2012/04/ukcoffeeweek/ukcw_10000124/jZgmeWa6uG_640x480.png","thumbUrl":"http://www.getnearme.com/data/merchants/2012/04/ukcoffeeweek/ukcw_10000124/jZgmeWa6uG_72x54.png","isSponsored":false,"isUserGenerated":false,"isVerified":false,"location":{"fullAddress":"110 Clifton Street, EC2A 4HT London, United Kingdom","address1":"110 Clifton Street","address2":null,"address3":null,"city":"London","countryCode":"GB","county":"Greater London","latitude":51.523644,"longitude":-0.082428,"postalCode":"EC2A 4HT","region":"London (East)"},"offersCount":0,"openNow":-1,"ratingsCount":0,"tradingName":"Taylor St Baristas"},{"id":"10000006","distance":1173,"service":"NearMe","detailsUrl":null,"advKey":"2837626072684d908f4aefe9f336014c","contact":{"blogUrl":null,"email":"info@benugo.com ","facebook":null,"fax":null,"foursquare":null,"mobile":null,"phone":"020 7253 1295","twitter":null,"websiteUrl":"http://www.benugocafedeli.com"},"displayName":"ukcw_10000006","photoUrl":"http://www.getnearme.com/data/merchants/2012/04/ukcoffeeweek/ukcw_10000006/e2fiCnfr2p_640x480.png","thumbUrl":"http://www.getnearme.com/data/merchants/2012/04/ukcoffeeweek/ukcw_10000006/e2fiCnfr2p_72x54.png","isSponsored":false,"isUserGenerated":false,"isVerified":false,"location":{"fullAddress":"82 City Road, EC1Y 2BJ London, United Kingdom","address1":"82 City Road","address2":null,"address3":null,"city":"London","countryCode":"GB","county":"Greater London","latitude":51.524921,"longitude":-0.087953,"postalCode":"EC1Y 2BJ","region":"London (City Centre)"},"offersCount":0,"openNow":-1,"ratingsCount":0,"tradingName":"benugo"},{"id":"10000125","distance":1268,"service":"NearMe","detailsUrl":null,"advKey":"2837626072684d908f4aefe9f336014c","contact":{"blogUrl":null,"email":"info@taylor-st.com","facebook":null,"fax":null,"foursquare":null,"mobile":null,"phone":"020 7256 8665","twitter":null,"websiteUrl":"http://www.taylor-st.com"},"displayName":"ukcw_10000125","photoUrl":"http://www.getnearme.com/data/merchants/2012/04/ukcoffeeweek/ukcw_10000125/sByzCTitWn_640x480.png","thumbUrl":"http://www.getnearme.com/data/merchants/2012/04/ukcoffeeweek/ukcw_10000125/sByzCTitWn_72x54.png","isSponsored":false,"isUserGenerated":false,"isVerified":false,"location":{"fullAddress":"125 Old Broad Street, EC2N 1AR London, United Kingdom","address1":"125 Old Broad Street","address2":null,"address3":null,"city":"London","countryCode":"GB","county":"Greater London","latitude":51.514696,"longitude":-0.08622,"postalCode":"EC2N 1AR","region":"London (City Centre)"},"offersCount":0,"openNow":-1,"ratingsCount":0,"tradingName":"Taylor St Baristas"},{"id":"10000044","distance":1529,"service":"NearMe","detailsUrl":null,"advKey":"2837626072684d908f4aefe9f336014c","contact":{"blogUrl":null,"email":"info@lock-7.com","facebook":null,"fax":null,"foursquare":null,"mobile":null,"phone":"020 7739 3042","twitter":null,"websiteUrl":"http://www.lock-7.com"},"displayName":"ukcw_10000044","photoUrl":"http://www.getnearme.com/data/merchants/2012/04/ukcoffeeweek/ukcw_10000044/0zI23OHdXq_640x480.png","thumbUrl":"http://www.getnearme.com/data/merchants/2012/04/ukcoffeeweek/ukcw_10000044/0zI23OHdXq_72x54.png","isSponsored":false,"isUserGenerated":false,"isVerified":false,"location":{"fullAddress":"129a Pritchard Road, E2 9AP London, United Kingdom","address1":"129a Pritchard Road","address2":null,"address3":null,"city":"London","countryCode":"GB","county":null,"latitude":51.5341868,"longitude":-0.0623899,"postalCode":"E2 9AP","region":"London (East)"},"offersCount":0,"openNow":-1,"ratingsCount":0,"tradingName":"Lock 7 Cycle Caf√©"}],"count":10}}