{"meta":{"code":200},"response":{"venues":[{"id":"7313","distance":5311,"service":"NearMe","detailsUrl":null,"advKey":null,"contact":{"blogUrl":null,"email":null,"facebook":null,"fax":null,"foursquare":null,"mobile":null,"phone":"08445 616 161","twitter":null,"websiteUrl":"http://www.debenhams.com"},"displayName":"debenhams_7313","photoUrl":"http://www.getnearme.com/data/merchants/2012/04/debenhams/debenhams_7313/Qz4ruUeV2N_640x480.png","thumbUrl":"http://www.getnearme.com/data/merchants/2012/04/debenhams/debenhams_7313/Qz4ruUeV2N_72x54.png","isSponsored":false,"isUserGenerated":false,"isVerified":false,"location":{"fullAddress":"334-348 Oxford Street, W1C 1JG London, United Kingdom","address1":"334-348 Oxford Street","address2":null,"address3":null,"city":"London","countryCode":"GB","county":null,"latitude":51.51498,"longitude":-0.14778,"postalCode":"W1C 1JG","region":"GB"},"offersCount":0,"openNow":-1,"ratingsCount":0,"tradingName":"Debenhams"},{"id":"7349","distance":9271,"service":"NearMe","detailsUrl":null,"advKey":null,"contact":{"blogUrl":null,"email":null,"facebook":null,"fax":null,"foursquare":null,"mobile":null,"phone":"08445 616 161","twitter":null,"websiteUrl":"http://www.debenhams.com"},"displayName":"debenhams_7349","photoUrl":"http://www.getnearme.com/data/merchants/2012/04/debenhams/debenhams_7349/8v60ZV6UlR_640x480.png","thumbUrl":"http://www.getnearme.com/data/merchants/2012/04/debenhams/debenhams_7349/8v60ZV6UlR_72x54.png","isSponsored":false,"isUserGenerated":false,"isVerified":false,"location":{"fullAddress":"315 Lavender Hill, SW11 1QL Clapham, United Kingdom","address1":"315 Lavender Hill","address2":null,"address3":null,"city":"Clapham","countryCode":"GB","county":null,"latitude":51.46318,"longitude":-0.16713,"postalCode":"SW11 1QL","region":"GB"},"offersCount":0,"openNow":-1,"ratingsCount":0,"tradingName":"Debenhams"},{"id":"7272","distance":10379,"service":"NearMe","detailsUrl":null,"advKey":null,"contact":{"blogUrl":null,"email":null,"facebook":null,"fax":null,"foursquare":null,"mobile":null,"phone":"08445 616 161","twitter":null,"websiteUrl":"http://www.debenhams.com"},"displayName":"debenhams_7272","photoUrl":"http://www.getnearme.com/data/merchants/2012/04/debenhams/debenhams_7272/jB51NO5sVM_640x480.png","thumbUrl":"http://www.getnearme.com/data/merchants/2012/04/debenhams/debenhams_7272/jB51NO5sVM_72x54.png","isSponsored":false,"isUserGenerated":false,"isVerified":false,"location":{"fullAddress":"Debenhams, Store D, Westfield London Shopping Centre, Ariel Way, W12 7GA London, United Kingdom","address1":"Debenhams, Store D, Westfield London Shopping Centre, Ariel Way","address2":null,"address3":null,"city":"London","countryCode":"GB","county":null,"latitude":51.507447,"longitude":-0.220016,"postalCode":"W12 7GA","region":"GB"},"offersCount":0,"openNow":-1,"ratingsCount":0,"tradingName":"Debenhams"},{"id":"7296","distance":10812,"service":"NearMe","detailsUrl":null,"advKey":null,"contact":{"blogUrl":null,"email":null,"facebook":null,"fax":null,"foursquare":null,"mobile":null,"phone":"08445 616 161","twitter":null,"websiteUrl":"http://www.debenhams.com"},"displayName":"debenhams_7296","photoUrl":"http://www.getnearme.com/data/merchants/2012/04/debenhams/debenhams_7296/XPfQDIOsil_640x480.png","thumbUrl":"http://www.getnearme.com/data/merchants/2012/04/debenhams/debenhams_7296/XPfQDIOsil_72x54.png","isSponsored":false,"isUserGenerated":false,"isVerified":false,"location":{"fullAddress":"The Mall, High Road, IG1 1RR Ilford, United Kingdom","address1":"The Mall, High Road","address2":null,"address3":null,"city":"Ilford","countryCode":"GB","county":null,"latitude":51.56033,"longitude":0.07172,"postalCode":"IG1 1RR","region":"GB"},"offersCount":0,"openNow":-1,"ratingsCount":0,"tradingName":"Debenhams"},{"id":"7320","distance":11812,"service":"NearMe","detailsUrl":null,"advKey":null,"contact":{"blogUrl":null,"email":null,"facebook":null,"fax":null,"foursquare":null,"mobile":null,"phone":"08445 616 161","twitter":null,"websiteUrl":"http://www.debenhams.com"},"displayName":"debenhams_7320","photoUrl":"http://www.getnearme.com/data/merchants/2012/04/debenhams/debenhams_7320/taUxb9HHO8_640x480.png","thumbUrl":"http://www.getnearme.com/data/merchants/2012/04/debenhams/debenhams_7320/taUxb9HHO8_72x54.png","isSponsored":false,"isUserGenerated":false,"isVerified":false,"location":{"fullAddress":"113 High Street, SE9 1TQ Eltham, United Kingdom","address1":"113 High Street","address2":null,"address3":null,"city":"Eltham","countryCode":"GB","county":null,"latitude":51.45094,"longitude":0.0554,"postalCode":"SE9 1TQ","region":"GB"},"offersCount":0,"openNow":-1,"ratingsCount":0,"tradingName":"Debenhams"},{"id":"7345","distance":14391,"service":"NearMe","detailsUrl":null,"advKey":null,"contact":{"blogUrl":null,"email":null,"facebook":null,"fax":null,"foursquare":null,"mobile":null,"phone":"08445 616 161","twitter":null,"websiteUrl":"http://www.debenhams.com"},"displayName":"debenhams_7345","photoUrl":"http://www.getnearme.com/data/merchants/2012/04/debenhams/debenhams_7345/WOHtwRUi7j_640x480.png","thumbUrl":"http://www.getnearme.com/data/merchants/2012/04/debenhams/debenhams_7345/WOHtwRUi7j_72x54.png","isSponsored":false,"isUserGenerated":false,"isVerified":false,"location":{"fullAddress":"Centre Court Shopping Centre, 4 Queens Road, SW19 8YD Wimbledon, United Kingdom","address1":"Centre Court Shopping Centre, 4 Queens Road","address2":null,"address3":null,"city":"Wimbledon","countryCode":"GB","county":null,"latitude":51.42189,"longitude":-0.204,"postalCode":"SW19 8YD","region":"GB"},"offersCount":0,"openNow":-1,"ratingsCount":0,"tradingName":"Debenhams"},{"id":"7316","distance":14464,"service":"NearMe","detailsUrl":null,"advKey":null,"contact":{"blogUrl":null,"email":null,"facebook":null,"fax":null,"foursquare":null,"mobile":null,"phone":"08445 616 161","twitter":null,"websiteUrl":"http://www.debenhams.com"},"displayName":"debenhams_7316","photoUrl":"http://www.getnearme.com/data/merchants/2012/04/debenhams/debenhams_7316/6Ft7R677v0_640x480.png","thumbUrl":"http://www.getnearme.com/data/merchants/2012/04/debenhams/debenhams_7316/6Ft7R677v0_72x54.png","isSponsored":false,"isUserGenerated":false,"isVerified":false,"location":{"fullAddress":"262 The Glades Shopping Centre, BR1 1DN Bromley, United Kingdom","address1":"262 The Glades Shopping Centre","address2":null,"address3":null,"city":"Bromley","countryCode":"GB","county":null,"latitude":51.40389,"longitude":0.01661,"postalCode":"BR1 1DN","region":"GB"},"offersCount":0,"openNow":-1,"ratingsCount":0,"tradingName":"Debenhams"},{"id":"7253","distance":16443,"service":"NearMe","detailsUrl":null,"advKey":null,"contact":{"blogUrl":null,"email":null,"facebook":null,"fax":null,"foursquare":null,"mobile":null,"phone":"08445 616 161","twitter":null,"websiteUrl":"http://www.debenhams.com"},"displayName":"debenhams_7253","photoUrl":"http://www.getnearme.com/data/merchants/2012/04/debenhams/debenhams_7253/lmyEpngmT0_640x480.png","thumbUrl":"http://www.getnearme.com/data/merchants/2012/04/debenhams/debenhams_7253/lmyEpngmT0_72x54.png","isSponsored":false,"isUserGenerated":false,"isVerified":false,"location":{"fullAddress":"27 The Treaty Centre, High Street, TW3 1EW Hounslow, United Kingdom","address1":"27 The Treaty Centre, High Street","address2":null,"address3":null,"city":"Hounslow","countryCode":"GB","county":null,"latitude":51.484944,"longitude":-0.301892,"postalCode":"TW3 1EW","region":"GB"},"offersCount":0,"openNow":-1,"ratingsCount":0,"tradingName":"Debenhams"},{"id":"7348","distance":16512,"service":"NearMe","detailsUrl":null,"advKey":null,"contact":{"blogUrl":null,"email":null,"facebook":null,"fax":null,"foursquare":null,"mobile":null,"phone":"08445 616 161","twitter":null,"websiteUrl":"http://www.debenhams.com"},"displayName":"debenhams_7348","photoUrl":"http://www.getnearme.com/data/merchants/2012/04/debenhams/debenhams_7348/erJUjd7dfy_640x480.png","thumbUrl":"http://www.getnearme.com/data/merchants/2012/04/debenhams/debenhams_7348/erJUjd7dfy_72x54.png","isSponsored":false,"isUserGenerated":false,"isVerified":false,"location":{"fullAddress":"11-31 North End, Centrale Shopping Centre, CR9 1RQ Croydon, United Kingdom","address1":"11-31 North End, Centrale Shopping Centre","address2":null,"address3":null,"city":"Croydon","countryCode":"GB","county":null,"latitude":51.37437,"longitude":-0.10122,"postalCode":"CR9 1RQ","region":"GB"},"offersCount":0,"openNow":-1,"ratingsCount":0,"tradingName":"Debenhams"},{"id":"7216","distance":18726,"service":"NearMe","detailsUrl":null,"advKey":null,"contact":{"blogUrl":null,"email":null,"facebook":null,"fax":null,"foursquare":null,"mobile":null,"phone":"08445 616 161","twitter":null,"websiteUrl":"http://www.debenhams.com"},"displayName":"debenhams_7216","photoUrl":"http://www.getnearme.com/data/merchants/2012/04/debenhams/debenhams_7216/pgFxBM4Efc_640x480.png","thumbUrl":"http://www.getnearme.com/data/merchants/2012/04/debenhams/debenhams_7216/pgFxBM4Efc_72x54.png","isSponsored":false,"isUserGenerated":false,"isVerified":false,"location":{"fullAddress":"Market Place, RM1 3ET Romford, United Kingdom","address1":"Market Place","address2":null,"address3":null,"city":"Romford","countryCode":"GB","county":null,"latitude":51.57895,"longitude":0.18294,"postalCode":"RM1 3ET","region":"GB"},"offersCount":0,"openNow":-1,"ratingsCount":0,"tradingName":"Debenhams"}],"count":10}}