{"meta":{"code":200},"response":{"venues":[{"id":"4192","distance":695,"service":"NearMe","detailsUrl":null,"advKey":null,"contact":{"blogUrl":null,"email":"dirtydicks@youngs.co.uk","facebook":null,"fax":null,"foursquare":null,"mobile":null,"phone":"020 7283 5888","twitter":null,"websiteUrl":"http://www.dirtydicks.co.uk"},"displayName":"youngs_4192","photoUrl":"http://www.getnearme.com/data/merchants/2012/04/youngs/youngs_4192/HcKkdZrpC7_640x480.png","thumbUrl":"http://www.getnearme.com/data/merchants/2012/04/youngs/youngs_4192/HcKkdZrpC7_72x54.png","isSponsored":false,"isUserGenerated":false,"isVerified":false,"location":{"fullAddress":"202 Bishopsgate, EC2M 4NR London, United Kingdom","address1":"202 Bishopsgate","address2":null,"address3":null,"city":"London","countryCode":"GB","county":null,"latitude":51.5178238,"longitude":-0.0796312,"postalCode":"EC2M 4NR","region":"GB"},"offersCount":0,"openNow":-1,"ratingsCount":0,"tradingName":"Dirty Dicks"},{"id":"4232","distance":1083,"service":"NearMe","detailsUrl":null,"advKey":null,"contact":{"blogUrl":null,"email":"mastergunner@youngs.co.uk","facebook":null,"fax":null,"foursquare":null,"mobile":null,"phone":"020 7588 3311","twitter":null,"websiteUrl":"http://www.themastergunner.co.uk"},"displayName":"youngs_4232","photoUrl":"http://www.getnearme.com/data/merchants/2012/04/youngs/youngs_4232/JSYsS4di65_640x480.png","thumbUrl":"http://www.getnearme.com/data/merchants/2012/04/youngs/youngs_4232/JSYsS4di65_72x54.png","isSponsored":false,"isUserGenerated":false,"isVerified":false,"location":{"fullAddress":"12a Finsbury Square, EC2A 1AN London, United Kingdom","address1":"12a Finsbury Square","address2":null,"address3":null,"city":"London","countryCode":"GB","county":null,"latitude":51.5217554,"longitude":-0.0874516,"postalCode":"EC2A 1AN","region":"GB"},"offersCount":0,"openNow":-1,"ratingsCount":0,"tradingName":"Master Gunner"},{"id":"4204","distance":1262,"service":"NearMe","detailsUrl":null,"advKey":null,"contact":{"blogUrl":null,"email":"elephant@youngs.co.uk","facebook":null,"fax":null,"foursquare":null,"mobile":null,"phone":"0207 623 8970","twitter":null,"websiteUrl":"http://www.elephantpub.co.uk"},"displayName":"youngs_4204","photoUrl":"http://www.getnearme.com/data/merchants/2012/04/youngs/youngs_4204/MdQVwofN1E_640x480.png","thumbUrl":"http://www.getnearme.com/data/merchants/2012/04/youngs/youngs_4204/MdQVwofN1E_72x54.png","isSponsored":false,"isUserGenerated":false,"isVerified":false,"location":{"fullAddress":"119 Fenchurch Street, EC3M 5BA London, United Kingdom","address1":"119 Fenchurch Street","address2":null,"address3":null,"city":"London","countryCode":"GB","county":null,"latitude":51.5120604,"longitude":-0.0813292,"postalCode":"EC3M 5BA","region":"GB"},"offersCount":0,"openNow":-1,"ratingsCount":0,"tradingName":"Elephant"},{"id":"4226","distance":1288,"service":"NearMe","detailsUrl":null,"advKey":null,"contact":{"blogUrl":null,"email":"lambtavern@youngs.co.uk","facebook":null,"fax":null,"foursquare":null,"mobile":null,"phone":"020 7626 2454","twitter":null,"websiteUrl":"http://www.lambtavernleadenhall.com"},"displayName":"youngs_4226","photoUrl":"http://www.getnearme.com/data/merchants/2012/04/youngs/youngs_4226/syhtOVXraq_640x480.png","thumbUrl":"http://www.getnearme.com/data/merchants/2012/04/youngs/youngs_4226/syhtOVXraq_72x54.png","isSponsored":false,"isUserGenerated":false,"isVerified":false,"location":{"fullAddress":"10-12 Leadenhall Market, EC3V 1LR London, United Kingdom","address1":"10-12 Leadenhall Market","address2":null,"address3":null,"city":"London","countryCode":"GB","county":null,"latitude":51.5126786,"longitude":-0.083393,"postalCode":"EC3V 1LR","region":"GB"},"offersCount":0,"openNow":-1,"ratingsCount":0,"tradingName":"Lamb Tavern"},{"id":"4242","distance":2015,"service":"NearMe","detailsUrl":null,"advKey":null,"contact":{"blogUrl":null,"email":"thepaternoster@youngs.co.uk","facebook":null,"fax":null,"foursquare":null,"mobile":null,"phone":"020 7248 4035","twitter":null,"websiteUrl":"http://www.thepaternoster.co.uk"},"displayName":"youngs_4242","photoUrl":"http://www.getnearme.com/data/merchants/2012/04/youngs/youngs_4242/fFryrjJNHE_640x480.png","thumbUrl":"http://www.getnearme.com/data/merchants/2012/04/youngs/youngs_4242/fFryrjJNHE_72x54.png","isSponsored":false,"isUserGenerated":false,"isVerified":false,"location":{"fullAddress":"2/4 Queens Head Passage, EC4M 7DZ Paternoster Sq., United Kingdom","address1":"2/4 Queens Head Passage","address2":null,"address3":null,"city":"Paternoster Sq.","countryCode":"GB","county":null,"latitude":51.514971,"longitude":-0.0988192,"postalCode":"EC4M 7DZ","region":"GB"},"offersCount":0,"openNow":-1,"ratingsCount":0,"tradingName":"Paternoster"},{"id":"4174","distance":2242,"service":"NearMe","detailsUrl":null,"advKey":null,"contact":{"blogUrl":null,"email":"bunchofgrapes@youngs.co.uk","facebook":null,"fax":null,"foursquare":null,"mobile":null,"phone":"020 7403 2070","twitter":null,"websiteUrl":"http://www.bunchofgrapesborough.co.uk"},"displayName":"youngs_4174","photoUrl":"http://www.getnearme.com/data/merchants/2012/04/youngs/youngs_4174/xeLO5cP6WK_640x480.png","thumbUrl":"http://www.getnearme.com/data/merchants/2012/04/youngs/youngs_4174/xeLO5cP6WK_72x54.png","isSponsored":false,"isUserGenerated":false,"isVerified":false,"location":{"fullAddress":"2 St Thomas Street, SE1 9RS London, United Kingdom","address1":"2 St Thomas Street","address2":null,"address3":null,"city":"London","countryCode":"GB","county":null,"latitude":51.5046407,"longitude":-0.0889897,"postalCode":"SE1 9RS","region":"GB"},"offersCount":0,"openNow":-1,"ratingsCount":0,"tradingName":"Bunch of Grapes"},{"id":"4158","distance":2439,"service":"NearMe","detailsUrl":null,"advKey":null,"contact":{"blogUrl":null,"email":"albion@youngs.co.uk","facebook":null,"fax":null,"foursquare":null,"mobile":null,"phone":"020 7583 0227","twitter":null,"websiteUrl":"http://www.thealbionlondon.com"},"displayName":"youngs_4158","photoUrl":"http://www.getnearme.com/data/merchants/2012/04/youngs/youngs_4158/6A2et6F7YD_640x480.png","thumbUrl":"http://www.getnearme.com/data/merchants/2012/04/youngs/youngs_4158/6A2et6F7YD_72x54.png","isSponsored":false,"isUserGenerated":false,"isVerified":false,"location":{"fullAddress":"2/3 New Bridge Street, EC4V 6AA London, United Kingdom","address1":"2/3 New Bridge Street","address2":null,"address3":null,"city":"London","countryCode":"GB","county":null,"latitude":51.5138248,"longitude":-0.1046751,"postalCode":"EC4V 6AA","region":"GB"},"offersCount":0,"openNow":-1,"ratingsCount":0,"tradingName":"Albion"},{"id":"4208","distance":2570,"service":"NearMe","detailsUrl":null,"advKey":null,"contact":{"blogUrl":null,"email":"foundersarms@youngs.co.uk","facebook":null,"fax":null,"foursquare":null,"mobile":null,"phone":"020 7928 1899","twitter":null,"websiteUrl":"http://www.foundersarms.co.uk"},"displayName":"youngs_4208","photoUrl":"http://www.getnearme.com/data/merchants/2012/04/youngs/youngs_4208/iDiyHrj291_640x480.png","thumbUrl":"http://www.getnearme.com/data/merchants/2012/04/youngs/youngs_4208/iDiyHrj291_72x54.png","isSponsored":false,"isUserGenerated":false,"isVerified":false,"location":{"fullAddress":"52 Hopton Street, SE1 9JH Bankside, United Kingdom","address1":"52 Hopton Street","address2":null,"address3":null,"city":"Bankside","countryCode":"GB","county":null,"latitude":51.5081863,"longitude":-0.1018829,"postalCode":"SE1 9JH","region":"GB"},"offersCount":0,"openNow":-1,"ratingsCount":0,"tradingName":"Founders Arms"},{"id":"4182","distance":2912,"service":"NearMe","detailsUrl":null,"advKey":null,"contact":{"blogUrl":null,"email":"cobornarms@youngs.co.uk","facebook":null,"fax":null,"foursquare":null,"mobile":null,"phone":"020 8980 3793","twitter":null,"websiteUrl":"http://www.youngs.co.uk/pub-detail.asp?PubID=375"},"displayName":"youngs_4182","photoUrl":"http://www.getnearme.com/data/merchants/2012/04/youngs/youngs_4182/3wY4sd1Ata_640x480.png","thumbUrl":"http://www.getnearme.com/data/merchants/2012/04/youngs/youngs_4182/3wY4sd1Ata_72x54.png","isSponsored":false,"isUserGenerated":false,"isVerified":false,"location":{"fullAddress":"8 Coborn Road, E3 2DA London, United Kingdom","address1":"8 Coborn Road","address2":null,"address3":null,"city":"London","countryCode":"GB","county":null,"latitude":51.5270458,"longitude":-0.0305585,"postalCode":"E3 2DA","region":"GB"},"offersCount":0,"openNow":-1,"ratingsCount":0,"tradingName":"Coborn Arms"},{"id":"4236","distance":3098,"service":"NearMe","detailsUrl":null,"advKey":null,"contact":{"blogUrl":null,"email":"mulberrybush@youngs.co.uk","facebook":null,"fax":null,"foursquare":null,"mobile":null,"phone":"020 7928 7940","twitter":null,"websiteUrl":"http://www.mulberrybushpub.com"},"displayName":"youngs_4236","photoUrl":"http://www.getnearme.com/data/merchants/2012/04/youngs/youngs_4236/JwUJcU1ByO_640x480.png","thumbUrl":"http://www.getnearme.com/data/merchants/2012/04/youngs/youngs_4236/JwUJcU1ByO_72x54.png","isSponsored":false,"isUserGenerated":false,"isVerified":false,"location":{"fullAddress":"89 Upper Ground, SE1 9PP London, United Kingdom","address1":"89 Upper Ground","address2":null,"address3":null,"city":"London","countryCode":"GB","county":null,"latitude":51.5074398,"longitude":-0.1102286,"postalCode":"SE1 9PP","region":"GB"},"offersCount":0,"openNow":-1,"ratingsCount":0,"tradingName":"Mulberry Bush"}],"count":10}}