{"meta":{"code":200},"response":{"venues":[{"id":"3951","distance":4121,"service":"NearMe","detailsUrl":null,"advKey":null,"contact":{"blogUrl":null,"email":null,"facebook":null,"fax":null,"foursquare":null,"mobile":null,"phone":"0207 2520657","twitter":null,"websiteUrl":"http://www.diy.com/"},"displayName":"bandq_3951","photoUrl":"http://www.getnearme.com/data/merchants/2012/04/diy/bandq_3951/agA5HUGAnN_640x480.png","thumbUrl":"http://www.getnearme.com/data/merchants/2012/04/diy/bandq_3951/agA5HUGAnN_72x54.png","isSponsored":false,"isUserGenerated":false,"isVerified":false,"location":{"fullAddress":"524 Old Kent Road, SE1 5BA London, United Kingdom","address1":"524 Old Kent Road","address2":null,"address3":null,"city":"London","countryCode":"GB","county":null,"latitude":51.4847,"longitude":-0.069347,"postalCode":"SE1 5BA","region":"GB"},"offersCount":0,"openNow":-1,"ratingsCount":0,"tradingName":"B&Q"},{"id":"3946","distance":5623,"service":"NearMe","detailsUrl":null,"advKey":null,"contact":{"blogUrl":null,"email":null,"facebook":null,"fax":null,"foursquare":null,"mobile":null,"phone":"020 89881010","twitter":null,"websiteUrl":"http://www.diy.com/"},"displayName":"bandq_3946","photoUrl":"http://www.getnearme.com/data/merchants/2012/04/diy/bandq_3946/nMiCjgD160_640x480.png","thumbUrl":"http://www.getnearme.com/data/merchants/2012/04/diy/bandq_3946/nMiCjgD160_72x54.png","isSponsored":false,"isUserGenerated":false,"isVerified":false,"location":{"fullAddress":"1 Leyton Mills, Marshall Road, E10 5NH London, United Kingdom","address1":"1 Leyton Mills, Marshall Road","address2":null,"address3":null,"city":"London","countryCode":"GB","county":null,"latitude":51.5564,"longitude":-0.012591,"postalCode":"E10 5NH","region":"GB"},"offersCount":0,"openNow":-1,"ratingsCount":0,"tradingName":"B&Q"},{"id":"3948","distance":5915,"service":"NearMe","detailsUrl":null,"advKey":null,"contact":{"blogUrl":null,"email":null,"facebook":null,"fax":null,"foursquare":null,"mobile":null,"phone":"020 85584817","twitter":null,"websiteUrl":"http://www.diy.com/"},"displayName":"bandq_3948","photoUrl":"http://www.getnearme.com/data/merchants/2012/04/diy/bandq_3948/kwhXQIYrcN_640x480.png","thumbUrl":"http://www.getnearme.com/data/merchants/2012/04/diy/bandq_3948/kwhXQIYrcN_72x54.png","isSponsored":false,"isUserGenerated":false,"isVerified":false,"location":{"fullAddress":"18 Heybridge Way, Lea Bridge Road, E10 7PQ London, United Kingdom","address1":"18 Heybridge Way, Lea Bridge Road","address2":null,"address3":null,"city":"London","countryCode":"GB","county":null,"latitude":51.5685,"longitude":-0.031021,"postalCode":"E10 7PQ","region":"GB"},"offersCount":0,"openNow":-1,"ratingsCount":0,"tradingName":"B&Q"},{"id":"4078","distance":6940,"service":"NearMe","detailsUrl":null,"advKey":null,"contact":{"blogUrl":null,"email":null,"facebook":null,"fax":null,"foursquare":null,"mobile":null,"phone":"020 83128000","twitter":null,"websiteUrl":"http://www.diy.com/"},"displayName":"bandq_4078","photoUrl":"http://www.getnearme.com/data/merchants/2012/04/diy/bandq_4078/JzcrC9QYKH_640x480.png","thumbUrl":"http://www.getnearme.com/data/merchants/2012/04/diy/bandq_4078/JzcrC9QYKH_72x54.png","isSponsored":false,"isUserGenerated":false,"isVerified":false,"location":{"fullAddress":"59 Bugsby Way, Greenwich Peninsula, SE10 0QJ London, United Kingdom","address1":"59 Bugsby Way, Greenwich Peninsula","address2":null,"address3":null,"city":"London","countryCode":"GB","county":null,"latitude":51.4904,"longitude":0.014933,"postalCode":"SE10 0QJ","region":"GB"},"offersCount":0,"openNow":-1,"ratingsCount":0,"tradingName":"B&Q"},{"id":"3957","distance":7223,"service":"NearMe","detailsUrl":null,"advKey":null,"contact":{"blogUrl":null,"email":null,"facebook":null,"fax":null,"foursquare":null,"mobile":null,"phone":"020 83651699","twitter":null,"websiteUrl":"http://www.diy.com/"},"displayName":"bandq_3957","photoUrl":"http://www.getnearme.com/data/merchants/2012/04/diy/bandq_3957/NDpmZs8y1p_640x480.png","thumbUrl":"http://www.getnearme.com/data/merchants/2012/04/diy/bandq_3957/NDpmZs8y1p_72x54.png","isSponsored":false,"isUserGenerated":false,"isVerified":false,"location":{"fullAddress":"Unit 7 Tottenham Hale Retail Park, Broad Lane, N15 4QD London, United Kingdom","address1":"Unit 7 Tottenham Hale Retail Park, Broad Lane","address2":null,"address3":null,"city":"London","countryCode":"GB","county":null,"latitude":51.5865,"longitude":-0.063591,"postalCode":"N15 4QD","region":"GB"},"offersCount":0,"openNow":-1,"ratingsCount":0,"tradingName":"B&Q"},{"id":"4081","distance":9814,"service":"NearMe","detailsUrl":null,"advKey":null,"contact":{"blogUrl":null,"email":null,"facebook":null,"fax":null,"foursquare":null,"mobile":null,"phone":"0208 7091100","twitter":null,"websiteUrl":"http://www.diy.com/"},"displayName":"bandq_4081","photoUrl":"http://www.getnearme.com/data/merchants/2012/04/diy/bandq_4081/P7FwlXrBw4_640x480.png","thumbUrl":"http://www.getnearme.com/data/merchants/2012/04/diy/bandq_4081/P7FwlXrBw4_72x54.png","isSponsored":false,"isUserGenerated":false,"isVerified":false,"location":{"fullAddress":"Unit 3, Gateway Retail Park, 8 Clapsgate Lane, Beckton Triangle, E6 6LG London, United Kingdom","address1":"Unit 3, Gateway Retail Park, 8 Clapsgate Lane, Beckton Triangle","address2":null,"address3":null,"city":"London","countryCode":"GB","county":null,"latitude":51.5218,"longitude":0.070061,"postalCode":"E6 6LG","region":"GB"},"offersCount":0,"openNow":-1,"ratingsCount":0,"tradingName":"B&Q"},{"id":"4099","distance":9867,"service":"NearMe","detailsUrl":null,"advKey":null,"contact":{"blogUrl":null,"email":null,"facebook":null,"fax":null,"foursquare":null,"mobile":null,"phone":"0208 7611236","twitter":null,"websiteUrl":"http://www.diy.com/"},"displayName":"bandq_4099","photoUrl":"http://www.getnearme.com/data/merchants/2012/04/diy/bandq_4099/hm4spOeF6x_640x480.png","thumbUrl":"http://www.getnearme.com/data/merchants/2012/04/diy/bandq_4099/hm4spOeF6x_72x54.png","isSponsored":false,"isUserGenerated":false,"isVerified":false,"location":{"fullAddress":"304-322 Norwood Road, SE27 9AF London, United Kingdom","address1":"304-322 Norwood Road","address2":null,"address3":null,"city":"London","countryCode":"GB","county":null,"latitude":51.4354,"longitude":-0.104748,"postalCode":"SE27 9AF","region":"GB"},"offersCount":0,"openNow":-1,"ratingsCount":0,"tradingName":"B&Q"},{"id":"3958","distance":10090,"service":"NearMe","detailsUrl":null,"advKey":null,"contact":{"blogUrl":null,"email":null,"facebook":null,"fax":null,"foursquare":null,"mobile":null,"phone":"020 85230333","twitter":null,"websiteUrl":"http://www.diy.com/"},"displayName":"bandq_3958","photoUrl":"http://www.getnearme.com/data/merchants/2012/04/diy/bandq_3958/Nzie14UFNR_640x480.png","thumbUrl":"http://www.getnearme.com/data/merchants/2012/04/diy/bandq_3958/Nzie14UFNR_72x54.png","isSponsored":false,"isUserGenerated":false,"isVerified":false,"location":{"fullAddress":"Unit 9, Deacon Industrial Estate, Cabinet Way, E4 8QF London, United Kingdom","address1":"Unit 9, Deacon Industrial Estate, Cabinet Way","address2":null,"address3":null,"city":"London","countryCode":"GB","county":null,"latitude":51.6085,"longitude":-0.029032,"postalCode":"E4 8QF","region":"GB"},"offersCount":0,"openNow":-1,"ratingsCount":0,"tradingName":"B&Q"},{"id":"3955","distance":10643,"service":"NearMe","detailsUrl":null,"advKey":null,"contact":{"blogUrl":null,"email":null,"facebook":null,"fax":null,"foursquare":null,"mobile":null,"phone":"020 88758000","twitter":null,"websiteUrl":"http://www.diy.com/"},"displayName":"bandq_3955","photoUrl":"http://www.getnearme.com/data/merchants/2012/04/diy/bandq_3955/eJbAuuqHGe_640x480.png","thumbUrl":"http://www.getnearme.com/data/merchants/2012/04/diy/bandq_3955/eJbAuuqHGe_72x54.png","isSponsored":false,"isUserGenerated":false,"isVerified":false,"location":{"fullAddress":"Smugglers Way, Wandsworth, SW18 1EG London, United Kingdom","address1":"Smugglers Way, Wandsworth","address2":null,"address3":null,"city":"London","countryCode":"GB","county":null,"latitude":51.4614,"longitude":-0.19113,"postalCode":"SW18 1EG","region":"GB"},"offersCount":0,"openNow":-1,"ratingsCount":0,"tradingName":"B&Q"},{"id":"3956","distance":10687,"service":"NearMe","detailsUrl":null,"advKey":null,"contact":{"blogUrl":null,"email":null,"facebook":null,"fax":null,"foursquare":null,"mobile":null,"phone":"020 84383200","twitter":null,"websiteUrl":"http://www.diy.com/"},"displayName":"bandq_3956","photoUrl":"http://www.getnearme.com/data/merchants/2012/04/diy/bandq_3956/eDKo76beki_640x480.png","thumbUrl":"http://www.getnearme.com/data/merchants/2012/04/diy/bandq_3956/eDKo76beki_72x54.png","isSponsored":false,"isUserGenerated":false,"isVerified":false,"location":{"fullAddress":"Unit 1, Broadway Retail Park, Cricklewood Lane, NW2 1ES London, United Kingdom","address1":"Unit 1, Broadway Retail Park, Cricklewood Lane","address2":null,"address3":null,"city":"London","countryCode":"GB","county":null,"latitude":51.5574,"longitude":-0.215294,"postalCode":"NW2 1ES","region":"GB"},"offersCount":0,"openNow":-1,"ratingsCount":0,"tradingName":"B&Q"}],"count":10}}