{"meta":{"code":200},"response":{"venues":[{"id":"2814","distance":648,"service":"NearMe","detailsUrl":null,"advKey":null,"contact":{"blogUrl":null,"email":"shootingstar@fullers.co.uk","facebook":null,"fax":null,"foursquare":null,"mobile":null,"phone":"020 7929 6818","twitter":null,"websiteUrl":"http://www.fullers.co.uk/rte.asp?id=4&itemid=274&task=View"},"displayName":"fullers_2814","photoUrl":"http://www.getnearme.com/data/merchants/2012/04/fullers/fullers_2814/y9qneBocB7_640x480.jpg","thumbUrl":"http://www.getnearme.com/data/merchants/2012/04/fullers/fullers_2814/y9qneBocB7_72x54.jpg","isSponsored":false,"isUserGenerated":false,"isVerified":false,"location":{"fullAddress":"125-129 Middlesex Street, E1 7JF London, United Kingdom","address1":"125-129 Middlesex Street","address2":null,"address3":null,"city":"London","countryCode":"GB","county":null,"latitude":51.517718,"longitude":-0.078589,"postalCode":"E1 7JF","region":"GB"},"offersCount":0,"openNow":-1,"ratingsCount":0,"tradingName":"The Shooting Star"},{"id":"2778","distance":965,"service":"NearMe","detailsUrl":null,"advKey":null,"contact":{"blogUrl":null,"email":"fleetwood@fullers.co.uk","facebook":null,"fax":null,"foursquare":null,"mobile":null,"phone":"020 7247 2242","twitter":null,"websiteUrl":"http://www.fullers.co.uk/rte.asp?id=4&itemid=108&task=View"},"displayName":"fullers_2778","photoUrl":"http://www.getnearme.com/data/merchants/2012/04/fullers/fullers_2778/dfauUMNs3d_640x480.jpg","thumbUrl":"http://www.getnearme.com/data/merchants/2012/04/fullers/fullers_2778/dfauUMNs3d_72x54.jpg","isSponsored":false,"isUserGenerated":false,"isVerified":false,"location":{"fullAddress":"36 Wilson Street, EC2M 2TE London, United Kingdom","address1":"36 Wilson Street","address2":null,"address3":null,"city":"London","countryCode":"GB","county":null,"latitude":51.519364,"longitude":-0.085208,"postalCode":"EC2M 2TE","region":"GB"},"offersCount":0,"openNow":-1,"ratingsCount":0,"tradingName":"The Fleetwood"},{"id":"2740","distance":1089,"service":"NearMe","detailsUrl":null,"advKey":null,"contact":{"blogUrl":null,"email":null,"facebook":null,"fax":null,"foursquare":null,"mobile":null,"phone":"020 7481 8195","twitter":null,"websiteUrl":"http://www.fullers.co.uk/rte.asp?id=4&itemid=100&task=View"},"displayName":"fullers_2740","photoUrl":"http://www.getnearme.com/data/merchants/2012/04/fullers/fullers_2740/e7Hwqngw14_640x480.jpg","thumbUrl":"http://www.getnearme.com/data/merchants/2012/04/fullers/fullers_2740/e7Hwqngw14_72x54.jpg","isSponsored":false,"isUserGenerated":false,"isVerified":false,"location":{"fullAddress":"124-127 Minories, EC3N 1NT London, United Kingdom","address1":"124-127 Minories","address2":null,"address3":null,"city":"London","countryCode":"GB","county":null,"latitude":51.512268,"longitude":-0.07583,"postalCode":"EC3N 1NT","region":"GB"},"offersCount":0,"openNow":-1,"ratingsCount":0,"tradingName":"The Fine Line"},{"id":"2751","distance":1094,"service":"NearMe","detailsUrl":null,"advKey":null,"contact":{"blogUrl":null,"email":"chamberlainhotel@fullers.co.uk","facebook":null,"fax":null,"foursquare":null,"mobile":null,"phone":"020 7680 1500","twitter":null,"websiteUrl":"http://www.fullers.co.uk/rte.asp?id=4&itemid=55&task=View"},"displayName":"fullers_2751","photoUrl":"http://www.getnearme.com/data/merchants/2012/04/fullers/fullers_2751/GOZYmo6PEM_640x480.jpg","thumbUrl":"http://www.getnearme.com/data/merchants/2012/04/fullers/fullers_2751/GOZYmo6PEM_72x54.jpg","isSponsored":false,"isUserGenerated":false,"isVerified":false,"location":{"fullAddress":"130-135 Minories, EC3N 1NU London, United Kingdom","address1":"130-135 Minories","address2":null,"address3":null,"city":"London","countryCode":"GB","county":null,"latitude":51.512214,"longitude":-0.075809,"postalCode":"EC3N 1NU","region":"GB"},"offersCount":0,"openNow":-1,"ratingsCount":0,"tradingName":"The Chamberlain Hotel"},{"id":"2951","distance":1156,"service":"NearMe","detailsUrl":null,"advKey":null,"contact":{"blogUrl":null,"email":null,"facebook":null,"fax":null,"foursquare":null,"mobile":null,"phone":"020 7253 3988","twitter":null,"websiteUrl":"http://www.fullers.co.uk/rte.asp?id=4&itemid=120&task=View"},"displayName":"fullers_2951","photoUrl":"http://www.getnearme.com/data/merchants/2012/04/fullers/fullers_2951/0qxiSMPUep_640x480.jpg","thumbUrl":"http://www.getnearme.com/data/merchants/2012/04/fullers/fullers_2951/0qxiSMPUep_72x54.jpg","isSponsored":false,"isUserGenerated":false,"isVerified":false,"location":{"fullAddress":"63 Pitfield Street, Hoxton, N1 6BU London, United Kingdom","address1":"63 Pitfield Street, Hoxton","address2":null,"address3":null,"city":"London","countryCode":"GB","county":null,"latitude":51.528955,"longitude":-0.083825,"postalCode":"N1 6BU","region":"GB"},"offersCount":0,"openNow":-1,"ratingsCount":0,"tradingName":"The George & Vulture"},{"id":"2756","distance":1282,"service":"NearMe","detailsUrl":null,"advKey":null,"contact":{"blogUrl":null,"email":"artilleryarms@fullers.co.uk","facebook":null,"fax":null,"foursquare":null,"mobile":null,"phone":"020 7253 4683","twitter":null,"websiteUrl":"http://www.fullers.co.uk/rte.asp?id=4&itemid=12&task=View"},"displayName":"fullers_2756","photoUrl":"http://www.getnearme.com/data/merchants/2012/04/fullers/fullers_2756/8LYRkP57nV_640x480.jpg","thumbUrl":"http://www.getnearme.com/data/merchants/2012/04/fullers/fullers_2756/8LYRkP57nV_72x54.jpg","isSponsored":false,"isUserGenerated":false,"isVerified":false,"location":{"fullAddress":"102 Bunhill Row, EC1Y 8ND London, United Kingdom","address1":"102 Bunhill Row","address2":null,"address3":null,"city":"London","countryCode":"GB","county":null,"latitude":51.523339,"longitude":-0.090144,"postalCode":"EC1Y 8ND","region":"GB"},"offersCount":0,"openNow":-1,"ratingsCount":0,"tradingName":"The Artillery Arms"},{"id":"2773","distance":1321,"service":"NearMe","detailsUrl":null,"advKey":null,"contact":{"blogUrl":null,"email":"countinghouse@fullers.co.uk","facebook":null,"fax":null,"foursquare":null,"mobile":null,"phone":"020 7283 7123","twitter":null,"websiteUrl":"http://www.fullers.co.uk/rte.asp?id=4&itemid=68&task=View"},"displayName":"fullers_2773","photoUrl":"http://www.getnearme.com/data/merchants/2012/04/fullers/fullers_2773/jLVRqcPrHF_640x480.jpg","thumbUrl":"http://www.getnearme.com/data/merchants/2012/04/fullers/fullers_2773/jLVRqcPrHF_72x54.jpg","isSponsored":false,"isUserGenerated":false,"isVerified":false,"location":{"fullAddress":"50 Cornhill, EC3V 3PD London, United Kingdom","address1":"50 Cornhill","address2":null,"address3":null,"city":"London","countryCode":"GB","county":null,"latitude":51.513137,"longitude":-0.084965,"postalCode":"EC3V 3PD","region":"GB"},"offersCount":0,"openNow":-1,"ratingsCount":0,"tradingName":"The Counting House"},{"id":"2836","distance":1327,"service":"NearMe","detailsUrl":null,"advKey":null,"contact":{"blogUrl":null,"email":"telegraph@fullers.co.uk","facebook":null,"fax":null,"foursquare":null,"mobile":null,"phone":"020 7920 9090","twitter":null,"websiteUrl":"http://www.fullers.co.uk/rte.asp?id=4&itemid=302&task=View"},"displayName":"fullers_2836","photoUrl":"http://www.getnearme.com/data/merchants/2012/04/fullers/fullers_2836/K7MqpijtRi_640x480.jpg","thumbUrl":"http://www.getnearme.com/data/merchants/2012/04/fullers/fullers_2836/K7MqpijtRi_72x54.jpg","isSponsored":false,"isUserGenerated":false,"isVerified":false,"location":{"fullAddress":"11 Telegraph Street, EC2R 7AR Moorgate, United Kingdom","address1":"11 Telegraph Street","address2":null,"address3":null,"city":"Moorgate","countryCode":"GB","county":null,"latitude":51.51565,"longitude":-0.08829,"postalCode":"EC2R 7AR","region":"GB"},"offersCount":0,"openNow":-1,"ratingsCount":0,"tradingName":"The Telegraph"},{"id":"3013","distance":1376,"service":"NearMe","detailsUrl":null,"advKey":null,"contact":{"blogUrl":null,"email":null,"facebook":null,"fax":null,"foursquare":null,"mobile":null,"phone":"020 7929 6550","twitter":null,"websiteUrl":"http://www.fullers.co.uk/rte.asp?id=4&itemid=295&task=View"},"displayName":"fullers_3013","photoUrl":"http://www.getnearme.com/data/merchants/2012/04/fullers/fullers_3013/xu6lJcSeuw_640x480.jpg","thumbUrl":"http://www.getnearme.com/data/merchants/2012/04/fullers/fullers_3013/xu6lJcSeuw_72x54.jpg","isSponsored":false,"isUserGenerated":false,"isVerified":false,"location":{"fullAddress":"Ship Tavern Passage, EC3V 1LY London, United Kingdom","address1":"Ship Tavern Passage","address2":null,"address3":null,"city":"London","countryCode":"GB","county":null,"latitude":51.512203,"longitude":-0.084485,"postalCode":"EC3V 1LY","region":"GB"},"offersCount":0,"openNow":-1,"ratingsCount":0,"tradingName":"The Swan"},{"id":"7161","distance":1412,"service":"NearMe","detailsUrl":null,"advKey":null,"contact":{"blogUrl":null,"email":"bluu.moorgate@fullers.co.uk","facebook":null,"fax":null,"foursquare":null,"mobile":null,"phone":"020 7600 6569","twitter":null,"websiteUrl":"http://www.fullers.co.uk/rte.asp?id=4&itemid=393&task=View"},"displayName":"fullers_7161","photoUrl":"http://www.getnearme.com/data/merchants/2012/04/fullers/fullers_7161/aDzrEZk61B_640x480.jpg","thumbUrl":"http://www.getnearme.com/data/merchants/2012/04/fullers/fullers_7161/aDzrEZk61B_72x54.jpg","isSponsored":false,"isUserGenerated":false,"isVerified":false,"location":{"fullAddress":"4 Moorgate, EC2R 6DA London, United Kingdom","address1":"4 Moorgate","address2":null,"address3":null,"city":"London","countryCode":"GB","county":null,"latitude":51.515294,"longitude":-0.089387,"postalCode":"EC2R 6DA","region":"GB"},"offersCount":0,"openNow":-1,"ratingsCount":0,"tradingName":"Bluu"}],"count":10}}