{"meta":{"code":200},"response":{"venues":[{"id":"11665","distance":11940,"service":"NearMe","detailsUrl":null,"advKey":"0e37020cd2534493a1ab1b4099071a5a","contact":{"blogUrl":null,"email":null,"facebook":null,"fax":null,"foursquare":null,"mobile":null,"phone":"02087673643","twitter":null,"websiteUrl":"http://www.onestop.co.uk"},"displayName":"onestop_11665","photoUrl":"http://www.getnearme.com/data/merchants/2012/04/onestop/onestop_11665/pgoZ6qSOPO_640x480.png","thumbUrl":"http://www.getnearme.com/data/merchants/2012/04/onestop/onestop_11665/pgoZ6qSOPO_72x54.png","isSponsored":false,"isUserGenerated":false,"isVerified":false,"location":{"fullAddress":"St Georges Grove, Tooting, SW17 0PZ London, United Kingdom","address1":"St Georges Grove","address2":"Tooting","address3":null,"city":"London","countryCode":"GB","county":null,"latitude":51.436656,"longitude":-0.176991,"postalCode":"SW17 0PZ","region":null},"offersCount":0,"openNow":-1,"ratingsCount":0,"tradingName":"One Stop"},{"id":"11664","distance":14363,"service":"NearMe","detailsUrl":null,"advKey":"0e37020cd2534493a1ab1b4099071a5a","contact":{"blogUrl":null,"email":null,"facebook":null,"fax":null,"foursquare":null,"mobile":null,"phone":"02088961863","twitter":null,"websiteUrl":"http://www.onestop.co.uk"},"displayName":"onestop_11664","photoUrl":"http://www.getnearme.com/data/merchants/2012/04/onestop/onestop_11664/wtQNxK63ST_640x480.png","thumbUrl":"http://www.getnearme.com/data/merchants/2012/04/onestop/onestop_11664/wtQNxK63ST_72x54.png","isSponsored":false,"isUserGenerated":false,"isVerified":false,"location":{"fullAddress":"43-49 Gunnersbury Lane, Acton, W3 8UX London, United Kingdom","address1":"43-49 Gunnersbury Lane","address2":"Acton","address3":null,"city":"London","countryCode":"GB","county":null,"latitude":51.506263,"longitude":-0.277862,"postalCode":"W3 8UX","region":null},"offersCount":0,"openNow":-1,"ratingsCount":0,"tradingName":"One Stop"},{"id":"11542","distance":15082,"service":"NearMe","detailsUrl":null,"advKey":"0e37020cd2534493a1ab1b4099071a5a","contact":{"blogUrl":null,"email":null,"facebook":null,"fax":null,"foursquare":null,"mobile":null,"phone":"02084492181","twitter":null,"websiteUrl":"http://www.onestop.co.uk"},"displayName":"onestop_11542","photoUrl":"http://www.getnearme.com/data/merchants/2012/04/onestop/onestop_11542/K1765Z8VwW_640x480.png","thumbUrl":"http://www.getnearme.com/data/merchants/2012/04/onestop/onestop_11542/K1765Z8VwW_72x54.png","isSponsored":false,"isUserGenerated":false,"isVerified":false,"location":{"fullAddress":"5 Station Parade, Cockfosters, EN4 0DL Herts, United Kingdom","address1":"5 Station Parade","address2":"Cockfosters","address3":null,"city":"Herts","countryCode":"GB","county":null,"latitude":51.648939,"longitude":-0.14757,"postalCode":"EN4 0DL","region":"Hertfordshire"},"offersCount":0,"openNow":-1,"ratingsCount":0,"tradingName":"One Stop"},{"id":"11661","distance":16284,"service":"NearMe","detailsUrl":null,"advKey":"0e37020cd2534493a1ab1b4099071a5a","contact":{"blogUrl":null,"email":null,"facebook":null,"fax":null,"foursquare":null,"mobile":null,"phone":"02083032152","twitter":null,"websiteUrl":"http://www.onestop.co.uk"},"displayName":"onestop_11661","photoUrl":"http://www.getnearme.com/data/merchants/2012/04/onestop/onestop_11661/HelO0QCsZm_640x480.png","thumbUrl":"http://www.getnearme.com/data/merchants/2012/04/onestop/onestop_11661/HelO0QCsZm_72x54.png","isSponsored":false,"isUserGenerated":false,"isVerified":false,"location":{"fullAddress":"145-147 Long Lane, Bexley Heath, DA7 5AQ Kent, United Kingdom","address1":"145-147 Long Lane","address2":"Bexley Heath","address3":null,"city":"Kent","countryCode":"GB","county":null,"latitude":51.465933,"longitude":0.145698,"postalCode":"DA7 5AQ","region":"Kent"},"offersCount":0,"openNow":-1,"ratingsCount":0,"tradingName":"One Stop"},{"id":"11651","distance":19037,"service":"NearMe","detailsUrl":null,"advKey":"0e37020cd2534493a1ab1b4099071a5a","contact":{"blogUrl":null,"email":null,"facebook":null,"fax":null,"foursquare":null,"mobile":null,"phone":"02086422314","twitter":null,"websiteUrl":"http://www.onestop.co.uk"},"displayName":"onestop_11651","photoUrl":"http://www.getnearme.com/data/merchants/2012/04/onestop/onestop_11651/suqb5NSXM1_640x480.png","thumbUrl":"http://www.getnearme.com/data/merchants/2012/04/onestop/onestop_11651/suqb5NSXM1_72x54.png","isSponsored":false,"isUserGenerated":false,"isVerified":false,"location":{"fullAddress":"5/7 Lower Road, Sutton, SM1 4QJ Surrey, United Kingdom","address1":"5/7 Lower Road","address2":"Sutton","address3":null,"city":"Surrey","countryCode":"GB","county":null,"latitude":51.365834,"longitude":-0.185321,"postalCode":"SM1 4QJ","region":"Surrrey"},"offersCount":0,"openNow":-1,"ratingsCount":0,"tradingName":"One Stop"},{"id":"11653","distance":19321,"service":"NearMe","detailsUrl":null,"advKey":"0e37020cd2534493a1ab1b4099071a5a","contact":{"blogUrl":null,"email":null,"facebook":null,"fax":null,"foursquare":null,"mobile":null,"phone":"01689859612","twitter":null,"websiteUrl":"http://www.onestop.co.uk"},"displayName":"onestop_11653","photoUrl":"http://www.getnearme.com/data/merchants/2012/04/onestop/onestop_11653/wF5IMkXUdp_640x480.png","thumbUrl":"http://www.getnearme.com/data/merchants/2012/04/onestop/onestop_11653/wF5IMkXUdp_72x54.png","isSponsored":false,"isUserGenerated":false,"isVerified":false,"location":{"fullAddress":"5-6 Princess Parade, Crofton Road, Locksbottom, BR6 8NP Nr Orpington, United Kingdom","address1":"5-6 Princess Parade, Crofton Road","address2":"Locksbottom","address3":null,"city":"Nr Orpington","countryCode":"GB","county":null,"latitude":51.36747,"longitude":0.05652,"postalCode":"BR6 8NP","region":"Kent,"},"offersCount":0,"openNow":-1,"ratingsCount":0,"tradingName":"One Stop"},{"id":"11662","distance":19364,"service":"NearMe","detailsUrl":null,"advKey":"0e37020cd2534493a1ab1b4099071a5a","contact":{"blogUrl":null,"email":null,"facebook":null,"fax":null,"foursquare":null,"mobile":null,"phone":"02086682887","twitter":null,"websiteUrl":"http://www.onestop.co.uk"},"displayName":"onestop_11662","photoUrl":"http://www.getnearme.com/data/merchants/2012/04/onestop/onestop_11662/AE4j0x1kUt_640x480.png","thumbUrl":"http://www.getnearme.com/data/merchants/2012/04/onestop/onestop_11662/AE4j0x1kUt_72x54.png","isSponsored":false,"isUserGenerated":false,"isVerified":false,"location":{"fullAddress":"450-454 Brighton Road, South Croydon, CR2 6AP Surrey, United Kingdom","address1":"450-454 Brighton Road","address2":"South Croydon","address3":null,"city":"Surrey","countryCode":"GB","county":null,"latitude":51.348594,"longitude":-0.101808,"postalCode":"CR2 6AP","region":"Surrey"},"offersCount":0,"openNow":-1,"ratingsCount":0,"tradingName":"One Stop"},{"id":"11538","distance":20247,"service":"NearMe","detailsUrl":null,"advKey":"0e37020cd2534493a1ab1b4099071a5a","contact":{"blogUrl":null,"email":null,"facebook":null,"fax":null,"foursquare":null,"mobile":null,"phone":"01992632895","twitter":null,"websiteUrl":"http://www.onestop.co.uk"},"displayName":"onestop_11538","photoUrl":"http://www.getnearme.com/data/merchants/2012/04/onestop/onestop_11538/TeNhl9wsqU_640x480.png","thumbUrl":"http://www.getnearme.com/data/merchants/2012/04/onestop/onestop_11538/TeNhl9wsqU_72x54.png","isSponsored":false,"isUserGenerated":false,"isVerified":false,"location":{"fullAddress":"16 Newnham Parade, College Road, EN8 9NU Cheshunt, United Kingdom","address1":"16 Newnham Parade","address2":"College Road","address3":null,"city":"Cheshunt","countryCode":"GB","county":null,"latitude":51.702419,"longitude":-0.035384,"postalCode":"EN8 9NU","region":"Hertfordshire"},"offersCount":0,"openNow":-1,"ratingsCount":0,"tradingName":"One Stop"},{"id":"11548","distance":21054,"service":"NearMe","detailsUrl":null,"advKey":"0e37020cd2534493a1ab1b4099071a5a","contact":{"blogUrl":null,"email":null,"facebook":null,"fax":null,"foursquare":null,"mobile":null,"phone":"01992639748","twitter":null,"websiteUrl":"http://www.onestop.co.uk"},"displayName":"onestop_11548","photoUrl":"http://www.getnearme.com/data/merchants/2012/04/onestop/onestop_11548/5ctzzVuL7t_640x480.png","thumbUrl":"http://www.getnearme.com/data/merchants/2012/04/onestop/onestop_11548/5ctzzVuL7t_72x54.png","isSponsored":false,"isUserGenerated":false,"isVerified":false,"location":{"fullAddress":"66/70 High Street, Cheshunt, EN8 0AH Waltham Cross, United Kingdom","address1":"66/70 High Street","address2":"Cheshunt","address3":null,"city":"Waltham Cross","countryCode":"GB","county":null,"latitude":51.709729,"longitude":-0.035371,"postalCode":"EN8 0AH","region":"Hertfordshire"},"offersCount":0,"openNow":-1,"ratingsCount":0,"tradingName":"One Stop"},{"id":"11663","distance":22986,"service":"NearMe","detailsUrl":null,"advKey":"0e37020cd2534493a1ab1b4099071a5a","contact":{"blogUrl":null,"email":null,"facebook":null,"fax":null,"foursquare":null,"mobile":null,"phone":"02083970095","twitter":null,"websiteUrl":"http://www.onestop.co.uk"},"displayName":"onestop_11663","photoUrl":"http://www.getnearme.com/data/merchants/2012/04/onestop/onestop_11663/X0H3e76pNw_640x480.png","thumbUrl":"http://www.getnearme.com/data/merchants/2012/04/onestop/onestop_11663/X0H3e76pNw_72x54.png","isSponsored":false,"isUserGenerated":false,"isVerified":false,"location":{"fullAddress":"Cox Lane, Chessington, KT9 1SG Surrey, United Kingdom","address1":"Cox Lane","address2":"Chessington","address3":null,"city":"Surrey","countryCode":"GB","county":null,"latitude":51.3691304,"longitude":-0.295531,"postalCode":"KT9 1SG","region":"Surrey"},"offersCount":0,"openNow":-1,"ratingsCount":0,"tradingName":"One Stop"}],"count":10}}