{"meta":{"code":200},"response":{"venues":[{"id":"Google:0589130874","distance":20,"service":"Google","detailsUrl":"http://www.google.com/maps/place?source=uds&q=Pubs+Bars&cid=825190448257645827","advKey":null,"contact":{"blogUrl":null,"email":null,"facebook":null,"fax":null,"foursquare":null,"mobile":null,"phone":"020 7247 3479","twitter":null,"websiteUrl":null},"displayName":null,"photoUrl":null,"thumbUrl":null,"isSponsored":false,"isUserGenerated":false,"isVerified":false,"location":{"fullAddress":"91 - 95 Brick Lane, London E1 6QL, United Kingdom","address1":"91 - 95 Brick Lane","address2":null,"address3":null,"city":"London","countryCode":null,"county":"GB","latitude":51.521578,"longitude":-0.071955,"postalCode":null,"region":null},"offersCount":0,"openNow":-1,"ratingsCount":0,"tradingName":"Vibe Bar"},{"id":"Google:9549165293","distance":34,"service":"Google","detailsUrl":"http://www.google.com/maps/place?source=uds&q=Pubs+Bars&cid=7168761873574960100","advKey":null,"contact":{"blogUrl":null,"email":null,"facebook":null,"fax":null,"foursquare":null,"mobile":null,"phone":"020 7770 6006","twitter":null,"websiteUrl":null},"displayName":null,"photoUrl":null,"thumbUrl":null,"isSponsored":false,"isUserGenerated":false,"isVerified":false,"location":{"fullAddress":"150 Brick Lane, London, Greater London E1 6QL, United Kingdom","address1":"150 Brick Lane","address2":null,"address3":null,"city":"London","countryCode":null,"county":"GB","latitude":51.521432,"longitude":-0.071684,"postalCode":null,"region":"Greater London"},"offersCount":0,"openNow":-1,"ratingsCount":0,"tradingName":"93 Feet East"},{"id":"Google:8161603797","distance":84,"service":"Google","detailsUrl":"http://www.google.com/maps/place?source=uds&q=Pubs+Bars&cid=9103043061415020558","advKey":null,"contact":{"blogUrl":null,"email":null,"facebook":null,"fax":null,"foursquare":null,"mobile":null,"phone":"020 7392 9180","twitter":null,"websiteUrl":null},"displayName":null,"photoUrl":null,"thumbUrl":null,"isSponsored":false,"isUserGenerated":false,"isVerified":false,"location":{"fullAddress":"91 Brick Lane, City of London, London, Greater London E1 6QL, United Kingdom","address1":"91 Brick Lane","address2":null,"address3":null,"city":"London","countryCode":null,"county":"GB","latitude":51.521124,"longitude":-0.072519,"postalCode":null,"region":"Greater London"},"offersCount":0,"openNow":-1,"ratingsCount":0,"tradingName":"The Big Chill Bar"},{"id":"Google:4238164598","distance":219,"service":"Google","detailsUrl":"http://www.google.com/maps/place?source=uds&q=Pubs+Bars&cid=4366444848625275013","advKey":null,"contact":{"blogUrl":null,"email":null,"facebook":null,"fax":null,"foursquare":null,"mobile":null,"phone":"020 7033 9072","twitter":null,"websiteUrl":null},"displayName":null,"photoUrl":null,"thumbUrl":null,"isSponsored":false,"isUserGenerated":false,"isVerified":false,"location":{"fullAddress":"133 Brick Lane, City of London, Greater London E1 6SB, United Kingdom","address1":"133 Brick Lane","address2":null,"address3":null,"city":null,"countryCode":null,"county":"GB","latitude":51.523704,"longitude":-0.071676,"postalCode":null,"region":"Greater London"},"offersCount":0,"openNow":-1,"ratingsCount":0,"tradingName":"Hookah Lounge Ltd"},{"id":"Google:3882143252","distance":249,"service":"Google","detailsUrl":"http://www.google.com/maps/place?source=uds&q=Pubs+Bars&cid=18407625908160319534","advKey":null,"contact":{"blogUrl":null,"email":null,"facebook":null,"fax":null,"foursquare":null,"mobile":null,"phone":"020 7247 2158","twitter":null,"websiteUrl":null},"displayName":null,"photoUrl":null,"thumbUrl":null,"isSponsored":false,"isUserGenerated":false,"isVerified":false,"location":{"fullAddress":"110 Commercial Street, Shadwell, London E1 6LZ, United Kingdom","address1":"110 Commercial Street","address2":null,"address3":null,"city":"London","countryCode":null,"county":"GB","latitude":51.520155,"longitude":-0.074354,"postalCode":null,"region":null},"offersCount":0,"openNow":-1,"ratingsCount":0,"tradingName":"The Golden Heart"},{"id":"Google:3257443973","distance":261,"service":"Google","detailsUrl":"http://www.google.com/maps/place?source=uds&q=Pubs+Bars&cid=18345900668756041575","advKey":null,"contact":{"blogUrl":null,"email":null,"facebook":null,"fax":null,"foursquare":null,"mobile":null,"phone":"020 7377 8455","twitter":null,"websiteUrl":null},"displayName":null,"photoUrl":null,"thumbUrl":null,"isSponsored":false,"isUserGenerated":false,"isVerified":false,"location":{"fullAddress":"142-144 Commercial Street, Shadwell, London E1 6NU, United Kingdom","address1":"142-144 Commercial Street","address2":null,"address3":null,"city":"London","countryCode":null,"county":"GB","latitude":51.521425,"longitude":-0.075539,"postalCode":null,"region":null},"offersCount":0,"openNow":-1,"ratingsCount":0,"tradingName":"The Commercial Tavern"},{"id":"Google:8556483262","distance":302,"service":"Google","detailsUrl":"http://www.google.com/maps/place?source=uds&q=Pubs+Bars&cid=5463155352207610749","advKey":null,"contact":{"blogUrl":null,"email":null,"facebook":null,"fax":null,"foursquare":null,"mobile":null,"phone":"020 7749 3540","twitter":null,"websiteUrl":null},"displayName":null,"photoUrl":null,"thumbUrl":null,"isSponsored":false,"isUserGenerated":false,"isVerified":false,"location":{"fullAddress":"19-23 Bethnal Green Road, Shoreditch, London E1 6LA, United Kingdom","address1":"19-23 Bethnal Green Road, Shoreditch","address2":null,"address3":null,"city":"London","countryCode":null,"county":"GB","latitude":51.523837,"longitude":-0.074565,"postalCode":null,"region":null},"offersCount":0,"openNow":-1,"ratingsCount":0,"tradingName":"Beach Blanket Babylon Shoreditch"},{"id":"Google:0228252482","distance":310,"service":"Google","detailsUrl":"http://www.google.com/maps/place?source=uds&q=Pubs+Bars&cid=11154846506996397076","advKey":null,"contact":{"blogUrl":null,"email":null,"facebook":null,"fax":null,"foursquare":null,"mobile":null,"phone":"020 7012 1234","twitter":null,"websiteUrl":null},"displayName":null,"photoUrl":null,"thumbUrl":null,"isSponsored":false,"isUserGenerated":false,"isVerified":false,"location":{"fullAddress":"1 Whitby Street, London Borough of Tower Hamlets, E1 6JU, United Kingdom","address1":"1 Whitby Street","address2":null,"address3":null,"city":"London","countryCode":null,"county":"GB","latitude":51.523983,"longitude":-0.074446,"postalCode":null,"region":"Greater London"},"offersCount":0,"openNow":-1,"ratingsCount":0,"tradingName":"Loungelover"},{"id":"2814","distance":648,"service":"NearMe","detailsUrl":null,"advKey":null,"contact":{"blogUrl":null,"email":"shootingstar@fullers.co.uk","facebook":null,"fax":null,"foursquare":null,"mobile":null,"phone":"020 7929 6818","twitter":null,"websiteUrl":"http://www.fullers.co.uk/rte.asp?id=4&itemid=274&task=View"},"displayName":"fullers_2814","photoUrl":"http://www.getnearme.com/data/merchants/2012/04/fullers/fullers_2814/y9qneBocB7_640x480.jpg","thumbUrl":"http://www.getnearme.com/data/merchants/2012/04/fullers/fullers_2814/y9qneBocB7_72x54.jpg","isSponsored":false,"isUserGenerated":false,"isVerified":false,"location":{"fullAddress":"125-129 Middlesex Street, E1 7JF London, United Kingdom","address1":"125-129 Middlesex Street","address2":null,"address3":null,"city":"London","countryCode":"GB","county":null,"latitude":51.517718,"longitude":-0.078589,"postalCode":"E1 7JF","region":"GB"},"offersCount":0,"openNow":-1,"ratingsCount":0,"tradingName":"The Shooting Star"},{"id":"4192","distance":695,"service":"NearMe","detailsUrl":null,"advKey":null,"contact":{"blogUrl":null,"email":"dirtydicks@youngs.co.uk","facebook":null,"fax":null,"foursquare":null,"mobile":null,"phone":"020 7283 5888","twitter":null,"websiteUrl":"http://www.dirtydicks.co.uk"},"displayName":"youngs_4192","photoUrl":"http://www.getnearme.com/data/merchants/2012/04/youngs/youngs_4192/HcKkdZrpC7_640x480.png","thumbUrl":"http://www.getnearme.com/data/merchants/2012/04/youngs/youngs_4192/HcKkdZrpC7_72x54.png","isSponsored":false,"isUserGenerated":false,"isVerified":false,"location":{"fullAddress":"202 Bishopsgate, EC2M 4NR London, United Kingdom","address1":"202 Bishopsgate","address2":null,"address3":null,"city":"London","countryCode":"GB","county":null,"latitude":51.5178238,"longitude":-0.0796312,"postalCode":"EC2M 4NR","region":"GB"},"offersCount":0,"openNow":-1,"ratingsCount":0,"tradingName":"Dirty Dicks"},{"id":"4291","distance":718,"service":"NearMe","detailsUrl":null,"advKey":null,"contact":{"blogUrl":null,"email":"thewhitehorse@geronimo-inns.co.uk","facebook":null,"fax":null,"foursquare":null,"mobile":null,"phone":"020 7377 9958","twitter":null,"websiteUrl":"http://www.geronimo-inns.co.uk/"},"displayName":"geronimo_4291","photoUrl":"http://www.getnearme.com/data/merchants/2012/04/geronimoinns/geronimo_4291/RBjPPl0Lfe_640x480.png","thumbUrl":"http://www.getnearme.com/data/merchants/2012/04/geronimoinns/geronimo_4291/RBjPPl0Lfe_72x54.png","isSponsored":false,"isUserGenerated":false,"isVerified":false,"location":{"fullAddress":"2 Exchange Square, EC2M 2QA London, United Kingdom","address1":"2 Exchange Square","address2":null,"address3":null,"city":"London","countryCode":"GB","county":null,"latitude":51.520667,"longitude":-0.082033,"postalCode":"EC2M 2QA","region":"GB"},"offersCount":0,"openNow":-1,"ratingsCount":0,"tradingName":"The White Horse"},{"id":"2778","distance":965,"service":"NearMe","detailsUrl":null,"advKey":null,"contact":{"blogUrl":null,"email":"fleetwood@fullers.co.uk","facebook":null,"fax":null,"foursquare":null,"mobile":null,"phone":"020 7247 2242","twitter":null,"websiteUrl":"http://www.fullers.co.uk/rte.asp?id=4&itemid=108&task=View"},"displayName":"fullers_2778","photoUrl":"http://www.getnearme.com/data/merchants/2012/04/fullers/fullers_2778/dfauUMNs3d_640x480.jpg","thumbUrl":"http://www.getnearme.com/data/merchants/2012/04/fullers/fullers_2778/dfauUMNs3d_72x54.jpg","isSponsored":false,"isUserGenerated":false,"isVerified":false,"location":{"fullAddress":"36 Wilson Street, EC2M 2TE London, United Kingdom","address1":"36 Wilson Street","address2":null,"address3":null,"city":"London","countryCode":"GB","county":null,"latitude":51.519364,"longitude":-0.085208,"postalCode":"EC2M 2TE","region":"GB"},"offersCount":0,"openNow":-1,"ratingsCount":0,"tradingName":"The Fleetwood"},{"id":"4232","distance":1083,"service":"NearMe","detailsUrl":null,"advKey":null,"contact":{"blogUrl":null,"email":"mastergunner@youngs.co.uk","facebook":null,"fax":null,"foursquare":null,"mobile":null,"phone":"020 7588 3311","twitter":null,"websiteUrl":"http://www.themastergunner.co.uk"},"displayName":"youngs_4232","photoUrl":"http://www.getnearme.com/data/merchants/2012/04/youngs/youngs_4232/JSYsS4di65_640x480.png","thumbUrl":"http://www.getnearme.com/data/merchants/2012/04/youngs/youngs_4232/JSYsS4di65_72x54.png","isSponsored":false,"isUserGenerated":false,"isVerified":false,"location":{"fullAddress":"12a Finsbury Square, EC2A 1AN London, United Kingdom","address1":"12a Finsbury Square","address2":null,"address3":null,"city":"London","countryCode":"GB","county":null,"latitude":51.5217554,"longitude":-0.0874516,"postalCode":"EC2A 1AN","region":"GB"},"offersCount":0,"openNow":-1,"ratingsCount":0,"tradingName":"Master Gunner"},{"id":"2740","distance":1089,"service":"NearMe","detailsUrl":null,"advKey":null,"contact":{"blogUrl":null,"email":null,"facebook":null,"fax":null,"foursquare":null,"mobile":null,"phone":"020 7481 8195","twitter":null,"websiteUrl":"http://www.fullers.co.uk/rte.asp?id=4&itemid=100&task=View"},"displayName":"fullers_2740","photoUrl":"http://www.getnearme.com/data/merchants/2012/04/fullers/fullers_2740/e7Hwqngw14_640x480.jpg","thumbUrl":"http://www.getnearme.com/data/merchants/2012/04/fullers/fullers_2740/e7Hwqngw14_72x54.jpg","isSponsored":false,"isUserGenerated":false,"isVerified":false,"location":{"fullAddress":"124-127 Minories, EC3N 1NT London, United Kingdom","address1":"124-127 Minories","address2":null,"address3":null,"city":"London","countryCode":"GB","county":null,"latitude":51.512268,"longitude":-0.07583,"postalCode":"EC3N 1NT","region":"GB"},"offersCount":0,"openNow":-1,"ratingsCount":0,"tradingName":"The Fine Line"},{"id":"2751","distance":1094,"service":"NearMe","detailsUrl":null,"advKey":null,"contact":{"blogUrl":null,"email":"chamberlainhotel@fullers.co.uk","facebook":null,"fax":null,"foursquare":null,"mobile":null,"phone":"020 7680 1500","twitter":null,"websiteUrl":"http://www.fullers.co.uk/rte.asp?id=4&itemid=55&task=View"},"displayName":"fullers_2751","photoUrl":"http://www.getnearme.com/data/merchants/2012/04/fullers/fullers_2751/GOZYmo6PEM_640x480.jpg","thumbUrl":"http://www.getnearme.com/data/merchants/2012/04/fullers/fullers_2751/GOZYmo6PEM_72x54.jpg","isSponsored":false,"isUserGenerated":false,"isVerified":false,"location":{"fullAddress":"130-135 Minories, EC3N 1NU London, United Kingdom","address1":"130-135 Minories","address2":null,"address3":null,"city":"London","countryCode":"GB","county":null,"latitude":51.512214,"longitude":-0.075809,"postalCode":"EC3N 1NU","region":"GB"},"offersCount":0,"openNow":-1,"ratingsCount":0,"tradingName":"The Chamberlain Hotel"},{"id":"2951","distance":1156,"service":"NearMe","detailsUrl":null,"advKey":null,"contact":{"blogUrl":null,"email":null,"facebook":null,"fax":null,"foursquare":null,"mobile":null,"phone":"020 7253 3988","twitter":null,"websiteUrl":"http://www.fullers.co.uk/rte.asp?id=4&itemid=120&task=View"},"displayName":"fullers_2951","photoUrl":"http://www.getnearme.com/data/merchants/2012/04/fullers/fullers_2951/0qxiSMPUep_640x480.jpg","thumbUrl":"http://www.getnearme.com/data/merchants/2012/04/fullers/fullers_2951/0qxiSMPUep_72x54.jpg","isSponsored":false,"isUserGenerated":false,"isVerified":false,"location":{"fullAddress":"63 Pitfield Street, Hoxton, N1 6BU London, United Kingdom","address1":"63 Pitfield Street, Hoxton","address2":null,"address3":null,"city":"London","countryCode":"GB","county":null,"latitude":51.528955,"longitude":-0.083825,"postalCode":"N1 6BU","region":"GB"},"offersCount":0,"openNow":-1,"ratingsCount":0,"tradingName":"The George & Vulture"},{"id":"4204","distance":1262,"service":"NearMe","detailsUrl":null,"advKey":null,"contact":{"blogUrl":null,"email":"elephant@youngs.co.uk","facebook":null,"fax":null,"foursquare":null,"mobile":null,"phone":"0207 623 8970","twitter":null,"websiteUrl":"http://www.elephantpub.co.uk"},"displayName":"youngs_4204","photoUrl":"http://www.getnearme.com/data/merchants/2012/04/youngs/youngs_4204/MdQVwofN1E_640x480.png","thumbUrl":"http://www.getnearme.com/data/merchants/2012/04/youngs/youngs_4204/MdQVwofN1E_72x54.png","isSponsored":false,"isUserGenerated":false,"isVerified":false,"location":{"fullAddress":"119 Fenchurch Street, EC3M 5BA London, United Kingdom","address1":"119 Fenchurch Street","address2":null,"address3":null,"city":"London","countryCode":"GB","county":null,"latitude":51.5120604,"longitude":-0.0813292,"postalCode":"EC3M 5BA","region":"GB"},"offersCount":0,"openNow":-1,"ratingsCount":0,"tradingName":"Elephant"},{"id":"2756","distance":1282,"service":"NearMe","detailsUrl":null,"advKey":null,"contact":{"blogUrl":null,"email":"artilleryarms@fullers.co.uk","facebook":null,"fax":null,"foursquare":null,"mobile":null,"phone":"020 7253 4683","twitter":null,"websiteUrl":"http://www.fullers.co.uk/rte.asp?id=4&itemid=12&task=View"},"displayName":"fullers_2756","photoUrl":"http://www.getnearme.com/data/merchants/2012/04/fullers/fullers_2756/8LYRkP57nV_640x480.jpg","thumbUrl":"http://www.getnearme.com/data/merchants/2012/04/fullers/fullers_2756/8LYRkP57nV_72x54.jpg","isSponsored":false,"isUserGenerated":false,"isVerified":false,"location":{"fullAddress":"102 Bunhill Row, EC1Y 8ND London, United Kingdom","address1":"102 Bunhill Row","address2":null,"address3":null,"city":"London","countryCode":"GB","county":null,"latitude":51.523339,"longitude":-0.090144,"postalCode":"EC1Y 8ND","region":"GB"},"offersCount":0,"openNow":-1,"ratingsCount":0,"tradingName":"The Artillery Arms"}],"count":18}}