{"meta":{"code":200},"response":{"venues":[{"id":"Google:6813436911","distance":48,"service":"Google","detailsUrl":"http://www.google.com/maps/place?source=uds&q=Furniture+Shops&cid=9717852678137387075","advKey":null,"contact":{"blogUrl":null,"email":null,"facebook":null,"fax":null,"foursquare":null,"mobile":null,"phone":"020 7539 3451","twitter":null,"websiteUrl":null},"displayName":null,"photoUrl":null,"thumbUrl":null,"isSponsored":false,"isUserGenerated":false,"isVerified":false,"location":{"fullAddress":"Elys Yard, The Old Truman Brewery, 91 Brick Lane, London, Greater London E1 6QL, United Kingdom","address1":"Elys Yard, The Old Truman Brewery, 91 Brick Lane","address2":null,"address3":null,"city":"London","countryCode":null,"county":"GB","latitude":51.521316,"longitude":-0.07199,"postalCode":null,"region":"Greater London"},"offersCount":0,"openNow":-1,"ratingsCount":0,"tradingName":"Frezza UK"},{"id":"Google:9310907301","distance":272,"service":"Google","detailsUrl":"http://www.google.com/maps/place?source=uds&q=Furniture+Shops&cid=13972542517498978671","advKey":null,"contact":{"blogUrl":null,"email":null,"facebook":null,"fax":null,"foursquare":null,"mobile":null,"phone":"020 7456 9400","twitter":null,"websiteUrl":null},"displayName":null,"photoUrl":null,"thumbUrl":null,"isSponsored":false,"isUserGenerated":false,"isVerified":false,"location":{"fullAddress":"132 Commercial Street, London Borough of Tower Hamlets, E1 6AZ, United Kingdom","address1":"132 Commercial Street","address2":null,"address3":null,"city":"London","countryCode":null,"county":"GB","latitude":51.519874,"longitude":-0.074353,"postalCode":null,"region":"Greater London"},"offersCount":0,"openNow":-1,"ratingsCount":0,"tradingName":"Faram"},{"id":"Google:1336598019","distance":300,"service":"Google","detailsUrl":"http://www.google.com/maps/place?source=uds&q=Furniture+Shops&cid=6952834056505656239","advKey":null,"contact":{"blogUrl":null,"email":null,"facebook":null,"fax":null,"foursquare":null,"mobile":null,"phone":"020 7247 2477","twitter":null,"websiteUrl":null},"displayName":null,"photoUrl":null,"thumbUrl":null,"isSponsored":false,"isUserGenerated":false,"isVerified":false,"location":{"fullAddress":"Brushfield St. 5mins walk from, Liverpool Street, Greater London, United Kingdom","address1":"Brushfield St. 5mins walk from","address2":null,"address3":null,"city":null,"countryCode":null,"county":"GB","latitude":51.520073,"longitude":-0.075212,"postalCode":null,"region":"Greater London"},"offersCount":0,"openNow":-1,"ratingsCount":0,"tradingName":"In Spitalfields"},{"id":"Google:3202684112","distance":309,"service":"Google","detailsUrl":"http://www.google.com/maps/place?source=uds&q=Furniture+Shops&cid=4071389708034097669","advKey":null,"contact":{"blogUrl":null,"email":null,"facebook":null,"fax":null,"foursquare":null,"mobile":null,"phone":"020 7655 4540","twitter":null,"websiteUrl":null},"displayName":null,"photoUrl":null,"thumbUrl":null,"isSponsored":false,"isUserGenerated":false,"isVerified":false,"location":{"fullAddress":"10 Lamb Street, Old Spitalfield Market, City of London, E1 6EA, United Kingdom","address1":"10 Lamb Street, Old Spitalfield Market","address2":null,"address3":null,"city":"London","countryCode":null,"county":"GB","latitude":51.520072,"longitude":-0.07537,"postalCode":null,"region":"Greater London"},"offersCount":0,"openNow":-1,"ratingsCount":0,"tradingName":"The Lollipop Shoppe"},{"id":"Google:1475409186","distance":345,"service":"Google","detailsUrl":"http://www.google.com/maps/place?source=uds&q=Furniture+Shops&cid=8892155477906038366","advKey":null,"contact":{"blogUrl":null,"email":null,"facebook":null,"fax":null,"foursquare":null,"mobile":null,"phone":"020 7375 3289","twitter":null,"websiteUrl":null},"displayName":null,"photoUrl":null,"thumbUrl":null,"isSponsored":false,"isUserGenerated":false,"isVerified":false,"location":{"fullAddress":"7 Horner Square, London E1 6EW, United Kingdom","address1":"7 Horner Square","address2":null,"address3":null,"city":"London","countryCode":null,"county":"GB","latitude":51.519793,"longitude":-0.075685,"postalCode":null,"region":null},"offersCount":0,"openNow":-1,"ratingsCount":0,"tradingName":"OneDeko, Contemporary Furniture"},{"id":"Google:8400409454","distance":365,"service":"Google","detailsUrl":"http://www.google.com/maps/place?source=uds&q=Furniture+Shops&cid=13360886709281189158","advKey":null,"contact":{"blogUrl":null,"email":null,"facebook":null,"fax":null,"foursquare":null,"mobile":null,"phone":"020 7247 7588","twitter":null,"websiteUrl":null},"displayName":null,"photoUrl":null,"thumbUrl":null,"isSponsored":false,"isUserGenerated":false,"isVerified":false,"location":{"fullAddress":"67 Brushfield Street, City of London, London, Greater London E1 6AA, United Kingdom","address1":"67 Brushfield Street","address2":null,"address3":null,"city":"London","countryCode":null,"county":"GB","latitude":51.51916,"longitude":-0.075066,"postalCode":null,"region":"Greater London"},"offersCount":0,"openNow":-1,"ratingsCount":0,"tradingName":"Elemental - antiques"},{"id":"Google:7289696485","distance":429,"service":"Google","detailsUrl":"http://www.google.com/maps/place?source=uds&q=Furniture+Shops&cid=13421171916456283002","advKey":null,"contact":{"blogUrl":null,"email":null,"facebook":null,"fax":null,"foursquare":null,"mobile":null,"phone":"020 7613 0882","twitter":null,"websiteUrl":null},"displayName":null,"photoUrl":null,"thumbUrl":null,"isSponsored":false,"isUserGenerated":false,"isVerified":false,"location":{"fullAddress":"230 Brick Ln, London E2 7EB, United Kingdom","address1":"230 Brick Ln","address2":null,"address3":null,"city":"London","countryCode":null,"county":"GB","latitude":51.525602,"longitude":-0.07184,"postalCode":null,"region":null},"offersCount":0,"openNow":-1,"ratingsCount":0,"tradingName":"Unto This Last"},{"id":"Google:9108298207","distance":494,"service":"Google","detailsUrl":"http://www.google.com/maps/place?source=uds&q=Furniture+Shops&cid=3949936667039659260","advKey":null,"contact":{"blogUrl":null,"email":null,"facebook":null,"fax":null,"foursquare":null,"mobile":null,"phone":"020 7739 9275","twitter":null,"websiteUrl":null},"displayName":null,"photoUrl":null,"thumbUrl":null,"isSponsored":false,"isUserGenerated":false,"isVerified":false,"location":{"fullAddress":"178 Shoreditch High Street, Shadwell, London E1 6HU, United Kingdom","address1":"178 Shoreditch High Street","address2":null,"address3":null,"city":"London","countryCode":null,"county":"GB","latitude":51.524452,"longitude":-0.077444,"postalCode":null,"region":null},"offersCount":0,"openNow":-1,"ratingsCount":0,"tradingName":"Squint"},{"id":"3951","distance":4121,"service":"NearMe","detailsUrl":null,"advKey":null,"contact":{"blogUrl":null,"email":null,"facebook":null,"fax":null,"foursquare":null,"mobile":null,"phone":"0207 2520657","twitter":null,"websiteUrl":"http://www.diy.com/"},"displayName":"bandq_3951","photoUrl":"http://www.getnearme.com/data/merchants/2012/04/diy/bandq_3951/agA5HUGAnN_640x480.png","thumbUrl":"http://www.getnearme.com/data/merchants/2012/04/diy/bandq_3951/agA5HUGAnN_72x54.png","isSponsored":false,"isUserGenerated":false,"isVerified":false,"location":{"fullAddress":"524 Old Kent Road, SE1 5BA London, United Kingdom","address1":"524 Old Kent Road","address2":null,"address3":null,"city":"London","countryCode":"GB","county":null,"latitude":51.4847,"longitude":-0.069347,"postalCode":"SE1 5BA","region":"GB"},"offersCount":0,"openNow":-1,"ratingsCount":0,"tradingName":"B&Q"},{"id":"3946","distance":5623,"service":"NearMe","detailsUrl":null,"advKey":null,"contact":{"blogUrl":null,"email":null,"facebook":null,"fax":null,"foursquare":null,"mobile":null,"phone":"020 89881010","twitter":null,"websiteUrl":"http://www.diy.com/"},"displayName":"bandq_3946","photoUrl":"http://www.getnearme.com/data/merchants/2012/04/diy/bandq_3946/nMiCjgD160_640x480.png","thumbUrl":"http://www.getnearme.com/data/merchants/2012/04/diy/bandq_3946/nMiCjgD160_72x54.png","isSponsored":false,"isUserGenerated":false,"isVerified":false,"location":{"fullAddress":"1 Leyton Mills, Marshall Road, E10 5NH London, United Kingdom","address1":"1 Leyton Mills, Marshall Road","address2":null,"address3":null,"city":"London","countryCode":"GB","county":null,"latitude":51.5564,"longitude":-0.012591,"postalCode":"E10 5NH","region":"GB"},"offersCount":0,"openNow":-1,"ratingsCount":0,"tradingName":"B&Q"},{"id":"3948","distance":5915,"service":"NearMe","detailsUrl":null,"advKey":null,"contact":{"blogUrl":null,"email":null,"facebook":null,"fax":null,"foursquare":null,"mobile":null,"phone":"020 85584817","twitter":null,"websiteUrl":"http://www.diy.com/"},"displayName":"bandq_3948","photoUrl":"http://www.getnearme.com/data/merchants/2012/04/diy/bandq_3948/kwhXQIYrcN_640x480.png","thumbUrl":"http://www.getnearme.com/data/merchants/2012/04/diy/bandq_3948/kwhXQIYrcN_72x54.png","isSponsored":false,"isUserGenerated":false,"isVerified":false,"location":{"fullAddress":"18 Heybridge Way, Lea Bridge Road, E10 7PQ London, United Kingdom","address1":"18 Heybridge Way, Lea Bridge Road","address2":null,"address3":null,"city":"London","countryCode":"GB","county":null,"latitude":51.5685,"longitude":-0.031021,"postalCode":"E10 7PQ","region":"GB"},"offersCount":0,"openNow":-1,"ratingsCount":0,"tradingName":"B&Q"},{"id":"4078","distance":6940,"service":"NearMe","detailsUrl":null,"advKey":null,"contact":{"blogUrl":null,"email":null,"facebook":null,"fax":null,"foursquare":null,"mobile":null,"phone":"020 83128000","twitter":null,"websiteUrl":"http://www.diy.com/"},"displayName":"bandq_4078","photoUrl":"http://www.getnearme.com/data/merchants/2012/04/diy/bandq_4078/JzcrC9QYKH_640x480.png","thumbUrl":"http://www.getnearme.com/data/merchants/2012/04/diy/bandq_4078/JzcrC9QYKH_72x54.png","isSponsored":false,"isUserGenerated":false,"isVerified":false,"location":{"fullAddress":"59 Bugsby Way, Greenwich Peninsula, SE10 0QJ London, United Kingdom","address1":"59 Bugsby Way, Greenwich Peninsula","address2":null,"address3":null,"city":"London","countryCode":"GB","county":null,"latitude":51.4904,"longitude":0.014933,"postalCode":"SE10 0QJ","region":"GB"},"offersCount":0,"openNow":-1,"ratingsCount":0,"tradingName":"B&Q"},{"id":"3957","distance":7223,"service":"NearMe","detailsUrl":null,"advKey":null,"contact":{"blogUrl":null,"email":null,"facebook":null,"fax":null,"foursquare":null,"mobile":null,"phone":"020 83651699","twitter":null,"websiteUrl":"http://www.diy.com/"},"displayName":"bandq_3957","photoUrl":"http://www.getnearme.com/data/merchants/2012/04/diy/bandq_3957/NDpmZs8y1p_640x480.png","thumbUrl":"http://www.getnearme.com/data/merchants/2012/04/diy/bandq_3957/NDpmZs8y1p_72x54.png","isSponsored":false,"isUserGenerated":false,"isVerified":false,"location":{"fullAddress":"Unit 7 Tottenham Hale Retail Park, Broad Lane, N15 4QD London, United Kingdom","address1":"Unit 7 Tottenham Hale Retail Park, Broad Lane","address2":null,"address3":null,"city":"London","countryCode":"GB","county":null,"latitude":51.5865,"longitude":-0.063591,"postalCode":"N15 4QD","region":"GB"},"offersCount":0,"openNow":-1,"ratingsCount":0,"tradingName":"B&Q"},{"id":"8300","distance":8981,"service":"NearMe","detailsUrl":"http://www.getnearme.com/venue/showMobileDetails?publicId=8300","advKey":null,"contact":{"blogUrl":null,"email":"info@costasbarbers.co.uk","facebook":null,"fax":null,"foursquare":null,"mobile":null,"phone":"0207 223 5277","twitter":"http://twitter.com/costasbarbers","websiteUrl":"http://www.costasbarbers.co.uk"},"displayName":"local_8300","photoUrl":"http://www.getnearme.com/data/merchants/2012/05/local_8300/local_8300/image002_640x480.png","thumbUrl":"http://www.getnearme.com/data/merchants/2012/05/local_8300/local_8300/image002_72x54.png","isSponsored":false,"isUserGenerated":false,"isVerified":false,"location":{"fullAddress":"165 Battersea High Street, SW11 3JS London, United Kingdom","address1":"165 Battersea High Street","address2":null,"address3":null,"city":"London","countryCode":"GB","county":null,"latitude":51.470546,"longitude":-0.172152,"postalCode":"SW11 3JS","region":null},"offersCount":0,"openNow":1,"ratingsCount":0,"tradingName":"Costa's Barbers"},{"id":"4081","distance":9814,"service":"NearMe","detailsUrl":null,"advKey":null,"contact":{"blogUrl":null,"email":null,"facebook":null,"fax":null,"foursquare":null,"mobile":null,"phone":"0208 7091100","twitter":null,"websiteUrl":"http://www.diy.com/"},"displayName":"bandq_4081","photoUrl":"http://www.getnearme.com/data/merchants/2012/04/diy/bandq_4081/P7FwlXrBw4_640x480.png","thumbUrl":"http://www.getnearme.com/data/merchants/2012/04/diy/bandq_4081/P7FwlXrBw4_72x54.png","isSponsored":false,"isUserGenerated":false,"isVerified":false,"location":{"fullAddress":"Unit 3, Gateway Retail Park, 8 Clapsgate Lane, Beckton Triangle, E6 6LG London, United Kingdom","address1":"Unit 3, Gateway Retail Park, 8 Clapsgate Lane, Beckton Triangle","address2":null,"address3":null,"city":"London","countryCode":"GB","county":null,"latitude":51.5218,"longitude":0.070061,"postalCode":"E6 6LG","region":"GB"},"offersCount":0,"openNow":-1,"ratingsCount":0,"tradingName":"B&Q"},{"id":"4099","distance":9867,"service":"NearMe","detailsUrl":null,"advKey":null,"contact":{"blogUrl":null,"email":null,"facebook":null,"fax":null,"foursquare":null,"mobile":null,"phone":"0208 7611236","twitter":null,"websiteUrl":"http://www.diy.com/"},"displayName":"bandq_4099","photoUrl":"http://www.getnearme.com/data/merchants/2012/04/diy/bandq_4099/hm4spOeF6x_640x480.png","thumbUrl":"http://www.getnearme.com/data/merchants/2012/04/diy/bandq_4099/hm4spOeF6x_72x54.png","isSponsored":false,"isUserGenerated":false,"isVerified":false,"location":{"fullAddress":"304-322 Norwood Road, SE27 9AF London, United Kingdom","address1":"304-322 Norwood Road","address2":null,"address3":null,"city":"London","countryCode":"GB","county":null,"latitude":51.4354,"longitude":-0.104748,"postalCode":"SE27 9AF","region":"GB"},"offersCount":0,"openNow":-1,"ratingsCount":0,"tradingName":"B&Q"},{"id":"3958","distance":10090,"service":"NearMe","detailsUrl":null,"advKey":null,"contact":{"blogUrl":null,"email":null,"facebook":null,"fax":null,"foursquare":null,"mobile":null,"phone":"020 85230333","twitter":null,"websiteUrl":"http://www.diy.com/"},"displayName":"bandq_3958","photoUrl":"http://www.getnearme.com/data/merchants/2012/04/diy/bandq_3958/Nzie14UFNR_640x480.png","thumbUrl":"http://www.getnearme.com/data/merchants/2012/04/diy/bandq_3958/Nzie14UFNR_72x54.png","isSponsored":false,"isUserGenerated":false,"isVerified":false,"location":{"fullAddress":"Unit 9, Deacon Industrial Estate, Cabinet Way, E4 8QF London, United Kingdom","address1":"Unit 9, Deacon Industrial Estate, Cabinet Way","address2":null,"address3":null,"city":"London","countryCode":"GB","county":null,"latitude":51.6085,"longitude":-0.029032,"postalCode":"E4 8QF","region":"GB"},"offersCount":0,"openNow":-1,"ratingsCount":0,"tradingName":"B&Q"},{"id":"3955","distance":10643,"service":"NearMe","detailsUrl":null,"advKey":null,"contact":{"blogUrl":null,"email":null,"facebook":null,"fax":null,"foursquare":null,"mobile":null,"phone":"020 88758000","twitter":null,"websiteUrl":"http://www.diy.com/"},"displayName":"bandq_3955","photoUrl":"http://www.getnearme.com/data/merchants/2012/04/diy/bandq_3955/eJbAuuqHGe_640x480.png","thumbUrl":"http://www.getnearme.com/data/merchants/2012/04/diy/bandq_3955/eJbAuuqHGe_72x54.png","isSponsored":false,"isUserGenerated":false,"isVerified":false,"location":{"fullAddress":"Smugglers Way, Wandsworth, SW18 1EG London, United Kingdom","address1":"Smugglers Way, Wandsworth","address2":null,"address3":null,"city":"London","countryCode":"GB","county":null,"latitude":51.4614,"longitude":-0.19113,"postalCode":"SW18 1EG","region":"GB"},"offersCount":0,"openNow":-1,"ratingsCount":0,"tradingName":"B&Q"}],"count":18}}